~Version Information
VERS.                2.00 :CWLS Log ASCII Standard
WRAP.                  NO :One line per depth step
#
~Well Information
#MNEM.UNIT               DATA                    DESCRIPTION OF MNEMONIC
#--- ---- ----------------------------------- -------------------------------
STRT.F                               8494.000 :START Depth
STOP.F                              13418.500 :STOP Depth
STEP.F                                  0.500 :STEP Length
NULL.                                -999.250 :NULL Value
DATE.                              2009-09-07 :LOG DATE
#
~Curve Information
#--- ---- ----------------------------------- -------------------------------
DEPTH.F                                        :
BVW .V/V                                      :Bound Volume Water
CARB_FLAG.UNITLESS                                     :Carbonate flag
COAL_FLAG.UNITLESS                                     :Coal flag
KLOGH.MD                                       :Calculated Horizontal Permeability From Logs
PHIF.V/V                                      :Final Porosity
SAND_FLAG.UNITLESS                                     :Sand Flag
SW  .V/V                                      :Water Saturation
VSH .V/V                                      :Volume of Shale
#
~ASCII data
# ...
11697.001 0.0488 0 0 0.001 0.048764 0 1 0.2555 
11697.501 0.0625 0 0 0.001 0.062516 0 1 0.2946 
11698.001 0.0663 0 0 0.001 0.077031 0 0.8611 0.3373 
11698.501 0.0798 0 0 0.001 0.079792 0 1 0.3732 
11699.001 0.072 0 0 0.001 0.072043 0 1 0.3804 
11699.501 0.0649 0 0 0.001 0.064894 0 1 0.3309 
11700.001 0.0611 0 0 0.001 0.061101 0 1 0.2751 
11700.501 0.0567 0 0 0.001 0.056747 0 1 0.2226 
11701.001 0.056 0 0 0.001 0.055957 0 1 0.203 
11701.501 0.0641 0 0 0.001 0.064138 0 1 0.1809 
11702.001 0.0678 0 0 0.001 0.067804 0 1 0.1592 
11702.501 0.0689 0 0 0.001 0.068859 0 1 0.1456 
11703.001 0.0687 0 0 0.001 0.068735 0 1 0.1386 
11703.501 0.0631 0 0 0.001 0.063076 0 1 0.1342 
11704.001 0.0536 0 0 0.001 0.053618 0 1 0.1402 
11704.501 0.0466 0 0 0.001 0.046585 0 1 0.1374 
11705.001 0.0502 0 0 0.001 0.050161 0 1 0.1409 
11705.501 0.0621 0 0 0.001 0.062129 0 1 0.1346 
11706.001 0.0628 0 0 0.001 0.062786 0 1 0.1236 
11706.501 0.0689 0 0 0.001 0.068864 0 1 0.1031 
11707.001 0.0657 0 0 0.001 0.065677 0 1 0.0979 
11707.501 0.0691 0 0 0.001 0.069098 0 1 0.1083 
11708.001 0.0624 0 0 0.001 0.062396 0 1 0.1296 
11708.501 0.0584 0 0 0.001 0.058369 0 1 0.1499 
11709.001 0.0514 0 0 0.001 0.051366 0 1 0.1758 
11709.501 0.0463 0 0 0.001 0.046264 0 1 0.2057 
11710.001 0.0444 0 0 0.001 0.044393 0 1 0.2255 
11710.501 0.0474 0 0 0.001 0.047436 0 1 0.2332 
11711.001 0.0569 0 0 0.001 0.056928 0 1 0.2287 
11711.501 0.0612 0 0 0.001 0.061154 0 1 0.2102 
11712.001 0.0657 0 0 0.001 0.065698 0 1 0.1825 
11712.501 0.0707 0 0 0.001 0.070677 0 1 0.1574 
11713.001 0.0724 0 0 0.001 0.076122 0 0.9509 0.1357 
11713.501 0.0726 0 0 0.001 0.077247 0 0.94 0.1183 
11714.001 0.0731 0 0 0.001 0.077731 0 0.941 0.1047 
11714.501 0.0729 0 0 0.001 0.072922 0 1 0.0863 
11715.001 0.0692 0 0 0.001 0.069152 0 1 0.0777 
11715.501 0.061 0 0 0.001 0.06098 0 1 0.0613 
11716.001 0.0589 0 0 0.001 0.058912 0 1 0.0725 
11716.501 0.0572 0 0 0.001 0.057225 0 1 0.0873 
11717.001 0.053 0 0 0.001 0.053047 0 1 0.1064 
11717.501 0.0477 0 0 0.001 0.047707 0 1 0.112 
11718.001 0.042 0 0 0.001 0.042024 0 1 0.1086 
11718.501 0.041 0 0 0.001 0.041036 0 1 0.1014 
11719.001 0.0408 0 0 0.001 0.040817 0 1 0.0875 
11719.501 0.043 0 0 0.001 0.042977 0 1 0.0889 
11720.001 0.0468 0 0 0.001 0.04682 0 1 0.0851 
11720.501 0.0526 0 0 0.001 0.052565 0 1 0.0886 
11721.001 0.0562 0 0 0.001 0.056189 0 1 0.0826 
11721.501 0.0575 0 0 0.001 0.057475 0 1 0.0865 
11722.001 0.053 0 0 0.001 0.053032 0 1 0.083 
11722.501 0.0488 0 0 0.001 0.048849 0 1 0.0867 
11723.001 0.0449 0 0 0.001 0.04493 0 1 0.0892 
11723.501 0.0418 0 0 0.001 0.041815 0 1 0.1003 
11724.001 0.0451 0 0 0.001 0.045148 0 1 0.1121 
11724.501 0.0448 0 0 0.001 0.044769 0 1 0.1422 
11725.001 0.0453 0 0 0.001 0.045278 0 1 0.167 
11725.501 0.0476 0 0 0.001 0.047576 0 1 0.1875 
11726.001 0.0509 0 0 0.001 0.050871 0 1 0.1842 
11726.501 0.0545 0 0 0.001 0.054482 0 1 0.1697 
11727.001 0.0518 0 0 0.001 0.051838 0 1 0.1404 
11727.501 0.0528 0 0 0.001 0.052753 0 1 0.1126 
11728.001 0.0548 0 0 0.001 0.054843 0 1 0.0937 
11728.501 0.0562 0 0 0.001 0.056166 0 1 0.0901 
11729.001 0.0554 0 0 0.001 0.055381 0 1 0.0854 
11729.501 0.0491 0 0 0.001 0.049098 0 1 0.0931 
11730.001 0.0489 0 0 0.001 0.048888 0 1 0.098 
11730.501 0.0484 0 0 0.001 0.048401 0 1 0.1038 
11731.001 0.0566 0 0 0.001 0.056585 0 1 0.1115 
11731.501 0.0548 0 0 0.001 0.054817 0 1 0.1249 
11732.001 0.0541 0 0 0.001 0.054086 0 1 0.1352 
11732.501 0.0516 0 0 0.001 0.051609 0 1 0.1322 
11733.001 0.0528 0 0 0.001 0.052783 0 1 0.1238 
11733.501 0.0562 0 0 0.001 0.056186 0 1 0.1332 
11734.001 0.0555 0 0 0.001 0.055545 0 1 0.1566 
11734.501 0.0486 0 0 0.001 0.048565 0 1 0.1761 
11735.001 0.0404 0 0 0.001 0.040404 0 1 0.1856 
11735.501 0.04 0 0 0.001 0.040047 0 1 0.1935 
11736.001 0.0408 0 0 0.001 0.040772 0 1 0.1902 
11736.501 0.0427 0 0 0.001 0.042749 0 1 0.1631 
11737.001 0.0433 0 0 0.001 0.043255 0 1 0.1268 
11737.501 0.043 0 0 0.001 0.042981 0 1 0.1038 
11738.001 0.0413 0 0 0.001 0.041273 0 1 0.0997 
11738.501 0.037 0 0 0.001 0.037008 0 1 0.1002 
11739.001 0.036 1 0 0.001 0.035973 0 1 0.1068 
11739.501 0.0363 0 0 0.001 0.036306 0 1 0.1233 
11740.001 0.0395 0 0 0.001 0.039484 0 1 0.1435 
11740.501 0.0534 0 0 0.001 0.053385 0 1 0.1846 
11741.001 0.0668 0 0 0.001 0.067972 0 0.9824 0.2333 
11741.501 0.0716 0 0 0.001 0.071635 0 1 0.2958 
11742.001 0.0602 0 0 0.001 0.060203 0 1 0.3269 
11742.501 0.0483 0 0 0.001 0.048281 0 1 0.3469 
11743.001 0.0447 0 0 0.001 0.044714 0 1 0.3315 
11743.501 0.0475 0 0 0.001 0.047528 0 1 0.315 
11744.001 0.0505 0 0 0.001 0.050505 0 1 0.2754 
11744.501 0.0563 0 0 0.001 0.056293 0 1 0.2413 
11745.001 0.0532 0 0 0.001 0.058082 0 0.9163 0.2194 
11745.501 0.0552 0 0 0.001 0.055832 0 0.9883 0.2125 
11746.001 0.05 0 0 0.001 0.049968 0 1 0.2079 
11746.501 0.0469 0 0 0.001 0.046933 0 1 0.1833 
11747.001 0.0431 0 0 0.001 0.043062 0 1 0.1809 
11747.501 0.0472 0 0 0.001 0.047248 0 1 0.1638 
11748.001 0.052 0 0 0.001 0.052034 0 1 0.1703 
11748.501 0.0598 0 0 0.001 0.065116 0 0.9179 0.1684 
11749.001 0.0602 0 0 0.001 0.066435 0 0.9059 0.1989 
11749.501 0.0531 0 0 0.001 0.053121 0 1 0.2011 
11750.001 0.0417 0 0 0.001 0.041702 0 1 0.1987 
11750.501 0.0481 0 0 0.001 0.048142 0 1 0.1823 
11751.001 0.0603 0 0 0.001 0.060396 0 0.9979 0.1739 
11751.501 0.0625 0 0 0.001 0.065668 0 0.9515 0.1571 
11752.001 0.0553 0 0 0.001 0.055327 0 1 0.146 
11752.501 0.0556 0 0 0.001 0.055576 0 1 0.1442 
11753.001 0.0555 0 0 0.001 0.055455 0 1 0.1386 
11753.501 0.0561 0 0 0.001 0.056051 0 1 0.1204 
11754.001 0.0556 0 0 0.001 0.055569 0 1 0.0982 
11754.501 0.0542 0 0 0.001 0.054248 0 1 0.0996 
11755.001 0.0518 0 0 0.001 0.051816 0 1 0.1193 
11755.501 0.0398 0 0 0.001 0.039826 0 1 0.1417 
11756.001 0.0348 1 0 0.001 0.03482 0 1 0.1441 
11756.501 0.0375 0 0 0.001 0.037536 0 1 0.1299 
11757.001 0.0562 0 0 0.001 0.05622 0 1 0.1273 
11757.501 0.049 0 0 0.001 0.064934 0 0.754 0.1309 
11758.001 0.0568 0 0 0.001 0.056824 0 1 0.1571 
11758.501 0.034 1 0 0.001 0.034044 0 1 0.1699 
11759.001 0.0171 1 0 0.001 0.017113 0 1 0.1803 
11759.501 0.0316 1 0 0.001 0.031598 0 1 0.1541 
11760.001 0.0431 0 0 0.001 0.043148 0 1 0.1205 
11760.501 0.0451 0 0 0.001 0.04514 0 1 0.0931 
11761.001 0.0375 0 0 0.001 0.037491 0 1 0.0863 
11761.501 0.0415 0 0 0.001 0.041508 0 1 0.0905 
11762.001 0.0509 0 0 0.001 0.050894 0 1 0.0929 
11762.501 0.0545 0 0 0.001 0.054546 0 1 0.0989 
11763.001 0.0567 0 0 0.001 0.056658 0 1 0.0973 
11763.501 0.0621 0 0 0.001 0.062147 0 1 0.1026 
11764.001 0.0601 0 0 0.001 0.060141 0 1 0.1097 
11764.501 0.051 0 0 0.001 0.051009 0 1 0.1207 
11765.001 0.0381 0 0 0.001 0.038051 0 1 0.1232 
11765.501 0.0356 1 0 0.001 0.03558 0 1 0.1173 
11766.001 0.036 1 0 0.001 0.036047 0 1 0.1067 
11766.501 0.034 1 0 0.001 0.034044 0 1 0.1015 
11767.001 0.0307 1 0 0.001 0.030656 0 1 0.0986 
11767.501 0.0289 1 0 0.001 0.028912 0 1 0.0987 
11768.001 0.0306 1 0 0.001 0.030612 0 1 0.0898 
11768.501 0.0309 1 0 0.001 0.03092 0 1 0.0807 
11769.001 0.0295 1 0 0.001 0.029514 0 1 0.0791 
11769.501 0.034 1 0 0.001 0.034029 0 1 0.0752 
11770.001 0.0335 1 0 0.001 0.033523 0 1 0.0728 
11770.501 0.0392 0 0 0.001 0.039246 0 1 0.0718 
11771.001 0.0396 0 0 0.001 0.039649 0 1 0.0715 
11771.501 0.0422 0 0 0.001 0.042218 0 1 0.0654 
11772.001 0.0411 0 0 0.001 0.041099 0 1 0.0684 
11772.501 0.0425 0 0 0.001 0.042513 0 1 0.0707 
11773.001 0.0414 0 0 0.001 0.041396 0 1 0.0783 
11773.501 0.0429 0 0 0.001 0.042922 0 1 0.0808 
11774.001 0.042 0 0 0.001 0.042004 0 1 0.0854 
11774.501 0.0454 0 0 0.001 0.045434 0 1 0.0908 
11775.001 0.0479 0 0 0.001 0.047912 0 1 0.1003 
11775.501 0.0517 0 0 0.001 0.051657 0 1 0.104 
11776.001 0.0542 0 0 0.001 0.054185 0 1 0.1273 
11776.501 0.0509 0 0 0.001 0.050928 0 1 0.1536 
11777.001 0.0478 0 0 0.001 0.047751 0 1 0.1898 
11777.501 0.0434 0 0 0.001 0.043399 0 1 0.2017 
11778.001 0.0434 0 0 0.001 0.043422 0 1 0.2126 
11778.501 0.0419 0 0 0.001 0.041881 0 1 0.2097 
11779.001 0.0405 0 0 0.001 0.040516 0 1 0.2088 
11779.501 0.0376 0 0 0.001 0.037613 0 1 0.1689 
11780.001 0.0357 1 0 0.001 0.035667 0 1 0.1328 
