~Version Information
VERS.                2.00 :CWLS Log ASCII Standard
WRAP.                 YES :Multiple lines per depth step
#
~Well Information
#MNEM.UNIT               DATA                    DESCRIPTION OF MNEMONIC
#--- ---- ----------------------------------- -------------------------------
STRT.F                                  0.000 :START Depth
STOP.F                              13418.500 :STOP Depth
STEP.F                                  0.500 :STEP Length
NULL.                                -999.250 :NULL Value
DATE.                              2009-09-07 :LOG DATE
#
~Curve Information
#--- ---- ----------------------------------- -------------------------------
DEPTH.F                                        :
CALI.IN                                       :Ultrasonic Caliper Average Diameter
DRHB.G/CC                                     :Bulk Density Correction  Bottom
DRHO.G/CC                                     :Bulk Density Correction
DRHU.G/CC                                     :Bulk Density Correction  Up
DT  .US/F                                     :Delta-T Compressional
GR  .GAPI                                     :Gamma Ray
NPHI.V/V                                      :Neutron Porosity
PEF .B/E                                      :Photoelectric Factor Bottom
RD  .OHMM                                     :Deep Resistivity
RHOB.G/CC                                     :Bulk Density
ROBB.G/CC                                     :Bulk Density  Bottom
ROBU.G/CC                                     :Bulk Density  Up
RS  .OHMM                                     :Shallow Resistivity
RT  .OHMM                                     :True Resistivity
#
~ASCII data
# ...
5085.500 
  8.88 -999.25 -999.25 -999.25 -999.25 138.347 0.615014 69.4872 1.3695 1.7783 
  -999.25 -999.25 1.1395 1.0989 
5086.000 
  8.88 -999.25 -999.25 -999.25 -999.25 139.875 0.615014 69.4872 1.3995 1.7783 
  -999.25 -999.25 1.1279 1.088 
5086.500 
  8.88 -999.25 -999.25 -999.25 -999.25 137.772 0.615014 69.4872 1.385 1.7783 
  -999.25 -999.25 1.1244 1.1055 
5087.000 
  8.88 -999.25 -999.25 -999.25 -999.25 131.402 0.615014 69.4872 1.3881 1.7783 
  -999.25 -999.25 1.1433 1.1212 
5087.500 
  8.88 -999.25 -999.25 -999.25 -999.25 125.984 0.615014 69.4872 1.3821 1.7783 
  -999.25 -999.25 1.1597 1.1377 
5088.000 
  8.88 -999.25 -999.25 -999.25 -999.25 128.513 0.615014 69.4872 1.3889 1.7783 
  -999.25 -999.25 1.1767 1.1517 
5088.500 
  8.88 -999.25 -999.25 -999.25 -999.25 128.519 0.615014 69.4872 1.3815 1.7783 
  -999.25 -999.25 1.1945 1.1815 
5089.000 
  8.88 -999.25 -999.25 -999.25 -999.25 128.189 0.615014 69.4872 1.3532 1.7783 
  -999.25 -999.25 1.218 1.2052 
5089.500 
  8.88 -999.25 -999.25 -999.25 -999.25 122.275 0.615014 69.4872 1.363 1.7783 
  -999.25 -999.25 1.2035 1.1749 
5090.000 
  8.88 -999.25 -999.25 -999.25 -999.25 121.304 0.615014 69.4872 1.3741 1.7783 
  -999.25 -999.25 1.1821 1.1656 
5090.500 
  8.88 -999.25 -999.25 -999.25 -999.25 117.798 0.615014 69.4872 1.3599 1.7783 
  -999.25 -999.25 1.1613 1.1732 
5091.000 
  8.88 -999.25 -999.25 -999.25 -999.25 111.961 0.615014 69.4872 1.332 1.7783 
  -999.25 -999.25 1.1578 1.1616 
5091.500 
  8.88 -999.25 -999.25 -999.25 -999.25 108.03 0.615014 69.4872 1.3315 1.7783 
  -999.25 -999.25 1.1288 1.1344 
5092.000 
  8.88 -999.25 -999.25 -999.25 -999.25 105.927 0.615014 69.4872 1.3182 1.7783 
  -999.25 -999.25 1.1113 1.1181 
5092.500 
  8.88 -999.25 -999.25 -999.25 -999.25 108.977 0.615014 69.4872 1.2996 1.7783 
  -999.25 -999.25 1.087 1.1052 
5093.000 
  8.88 -999.25 -999.25 -999.25 -999.25 109.798 0.615014 69.4872 1.2903 1.7783 
  -999.25 -999.25 1.081 1.0795 
5093.500 
  8.88 -999.25 -999.25 -999.25 -999.25 111.128 0.615014 69.4872 1.2939 1.7783 
  -999.25 -999.25 1.0738 1.0773 
5094.000 
  8.88 -999.25 -999.25 -999.25 -999.25 111.398 0.615014 69.4872 1.2883 1.7783 
  -999.25 -999.25 1.0698 1.0745 
5094.500 
  8.88 -999.25 -999.25 -999.25 -999.25 109.169 0.615014 69.4872 1.284 1.7783 
  -999.25 -999.25 1.0725 1.0746 
5095.000 
  8.88 -999.25 -999.25 -999.25 -999.25 106.724 0.615014 69.4872 1.2373 1.7783 
  -999.25 -999.25 1.0985 1.1118 
5095.500 
  8.88 -999.25 -999.25 -999.25 -999.25 102.804 0.615014 69.4872 1.2304 1.7783 
  -999.25 -999.25 1.1335 1.1346 
5096.000 
  8.88 -999.25 -999.25 -999.25 -999.25 101.738 0.615014 69.4872 1.2397 1.7783 
  -999.25 -999.25 1.1493 1.1526 
5096.500 
  8.88 -999.25 -999.25 -999.25 -999.25 100.557 0.615014 69.4872 1.1799 1.7783 
  -999.25 -999.25 1.1588 1.1772 
5097.000 
  8.88 -999.25 -999.25 -999.25 -999.25 98.7354 0.615014 69.4872 1.1605 1.7783 
  -999.25 -999.25 1.1413 1.1533 
5097.500 
  8.88 -999.25 -999.25 -999.25 -999.25 98.22 0.615014 69.4872 1.1724 1.7783 
  -999.25 -999.25 1.1144 1.0745 
5098.000 
  8.88 -999.25 -999.25 -999.25 -999.25 99.3107 0.615014 69.4872 1.208 1.7783 
  -999.25 -999.25 1.0939 1.05 
5098.500 
  8.88 -999.25 -999.25 -999.25 -999.25 103.907 0.615014 69.4872 1.2869 1.7783 
  -999.25 -999.25 1.0493 1.0111 
5099.000 
  8.88 -999.25 -999.25 -999.25 -999.25 106.07 0.615014 69.4872 1.2983 1.7783 
  -999.25 -999.25 1.0288 1.0103 
5099.500 
  8.88 -999.25 -999.25 -999.25 -999.25 105.927 0.615014 69.4872 1.3083 1.7783 
  -999.25 -999.25 1.0332 1.0406 
5100.000 
  8.88 -999.25 -999.25 -999.25 -999.25 104.351 0.615014 69.4872 1.346 1.7783 
  -999.25 -999.25 1.0534 1.0813 
5100.500 
  8.88 -999.25 -999.25 -999.25 -999.25 104.225 0.615014 69.4872 1.3738 1.7783 
  -999.25 -999.25 1.0721 1.1145 
5101.000 
  8.88 -999.25 -999.25 -999.25 -999.25 103.464 0.615014 69.4872 1.3909 1.7783 
  -999.25 -999.25 1.1239 1.168 
5101.500 
  8.88 -999.25 -999.25 -999.25 -999.25 106.136 0.615014 69.4872 1.3507 1.7783 
  -999.25 -999.25 1.1491 1.1749 
5102.000 
  8.88 -999.25 -999.25 -999.25 -999.25 105.573 0.615014 69.4872 1.3872 1.7783 
  -999.25 -999.25 1.1225 1.1175 
5102.500 
  8.88 -999.25 -999.25 -999.25 -999.25 108.096 0.615014 69.4872 1.3729 1.7783 
  -999.25 -999.25 1.1135 1.1002 
5103.000 
  8.88 -999.25 -999.25 -999.25 -999.25 108.006 0.615014 69.4872 1.3896 1.7783 
  -999.25 -999.25 1.1059 1.1122 
5103.500 
  8.88 -999.25 -999.25 -999.25 -999.25 105.969 0.615014 69.4872 1.408 1.7783 
  -999.25 -999.25 1.1067 1.1054 
5104.000 
  8.88 -999.25 -999.25 -999.25 -999.25 103.356 0.615014 69.4872 1.4231 1.7783 
  -999.25 -999.25 1.1092 1.1212 
5104.500 
  8.88 -999.25 -999.25 -999.25 -999.25 98.6635 0.615014 69.4872 1.383 1.7783 
  -999.25 -999.25 1.1057 1.1373 
5105.000 
  8.88 -999.25 -999.25 -999.25 -999.25 95.805 0.615014 69.4872 1.3687 1.7783 
  -999.25 -999.25 1.1195 1.1294 
5105.500 
  8.88 -999.25 -999.25 -999.25 -999.25 91.748 0.615014 69.4872 1.4227 1.7783 
  -999.25 -999.25 1.1412 1.1192 
5106.000 
  8.88 -999.25 -999.25 -999.25 -999.25 88.6078 0.615014 69.4872 1.5267 1.7783 
  -999.25 -999.25 1.1612 1.1322 
5106.500 
  8.88 -999.25 -999.25 -999.25 -999.25 88.2482 0.615014 69.4872 1.4405 1.7783 
  -999.25 -999.25 1.1952 1.2062 
5107.000 
  8.88 -999.25 -999.25 -999.25 -999.25 93.2401 0.615014 69.4872 1.2222 1.7783 
  -999.25 -999.25 1.2303 1.2972 
5107.500 
  8.88 -999.25 -999.25 -999.25 -999.25 98.8433 0.615014 69.4872 1.2396 1.7783 
  -999.25 -999.25 1.1964 1.1974 
5108.000 
  8.88 -999.25 -999.25 -999.25 -999.25 101.762 0.615014 69.4872 1.3102 1.7783 
  -999.25 -999.25 1.1399 1.105 
5108.500 
  8.88 -999.25 -999.25 -999.25 -999.25 99.1189 0.615014 69.4872 1.2877 1.7783 
  -999.25 -999.25 1.0915 1.0988 
5109.000 
  8.88 -999.25 -999.25 -999.25 -999.25 99.053 0.615014 69.4872 1.2484 1.7783 
  -999.25 -999.25 1.0722 1.0832 
5109.500 
  8.88 -999.25 -999.25 -999.25 -999.25 99.1849 0.615014 69.4872 1.2554 1.7783 
  -999.25 -999.25 1.0537 1.0525 
5110.000 
  8.88 -999.25 -999.25 -999.25 -999.25 101.648 0.615014 69.4872 1.2272 1.7783 
  -999.25 -999.25 1.0473 1.0571 
5110.500 
  8.88 -999.25 -999.25 -999.25 -999.25 101.756 0.615014 69.4872 1.2133 1.7783 
  -999.25 -999.25 1.0285 1.0241 
5111.000 
  8.88 -999.25 -999.25 -999.25 -999.25 100.377 0.615014 69.4872 1.2146 1.7783 
  -999.25 -999.25 1.0067 1.0077 
5111.500 
  8.88 -999.25 -999.25 -999.25 -999.25 99.8261 0.615014 69.4872 1.246 1.7783 
  -999.25 -999.25 1.0093 1.0058 
5112.000 
  8.88 -999.25 -999.25 -999.25 -999.25 98.5077 0.615014 69.4872 1.248 1.7783 
  -999.25 -999.25 1.0075 1.0235 
5112.500 
  8.88 -999.25 -999.25 -999.25 -999.25 96.578 0.615014 69.4872 1.2358 1.7783 
  -999.25 -999.25 1.0219 1.0404 
5113.000 
  8.88 -999.25 -999.25 -999.25 -999.25 98.0043 0.615014 69.4872 1.2241 1.7783 
  -999.25 -999.25 1.0304 1.0361 
5113.500 
  8.88 -999.25 -999.25 -999.25 -999.25 98.6096 0.615014 69.4872 1.2426 1.7783 
  -999.25 -999.25 1.0335 1.0339 
5114.000 
  8.88 -999.25 -999.25 -999.25 -999.25 102.241 0.615014 69.4872 1.2687 1.7783 
  -999.25 -999.25 1.0336 1.0302 
5114.500 
  8.88 -999.25 -999.25 -999.25 -999.25 102.511 0.615014 69.4872 1.2566 1.7783 
  -999.25 -999.25 1.0278 1.0325 
5115.000 
  8.88 -999.25 -999.25 -999.25 -999.25 105.969 0.615014 69.4872 1.2491 1.7783 
  -999.25 -999.25 1.0282 1.0192 
5115.500 
  8.88 -999.25 -999.25 -999.25 -999.25 108.21 0.615014 69.4872 1.2668 1.7783 
  -999.25 -999.25 1.0186 1.0085 
5116.000 
  8.88 -999.25 -999.25 -999.25 -999.25 108.467 0.615014 69.4872 1.2816 1.7783 
  -999.25 -999.25 1.0112 1.0074 
5116.500 
  8.88 -999.25 -999.25 -999.25 -999.25 107.772 0.615014 69.4872 1.2761 1.7783 
  -999.25 -999.25 1.0144 1.005 
5117.000 
  8.88 -999.25 -999.25 -999.25 -999.25 103.895 0.615014 69.4872 1.2322 1.7783 
  -999.25 -999.25 1.0349 1.0211 
5117.500 
  8.88 -999.25 -999.25 -999.25 -999.25 100.881 0.615014 69.4872 1.2536 1.7783 
  -999.25 -999.25 1.0351 1.0128 
5118.000 
  8.88 -999.25 -999.25 -999.25 -999.25 96.1945 0.615014 69.4872 1.2642 1.7783 
  -999.25 -999.25 1.0266 1.0122 
