~Version Information
VERS.                2.00 :CWLS Log ASCII Standard
WRAP.                 YES :Multiple lines per depth step
#
~Well Information
#MNEM.UNIT               DATA                    DESCRIPTION OF MNEMONIC
#--- ---- ----------------------------------- -------------------------------
STRT.F                                  0.000 :START Depth
STOP.F                              13418.500 :STOP Depth
STEP.F                                  0.500 :STEP Length
NULL.                                -999.250 :NULL Value
DATE.                              2009-09-07 :LOG DATE
#
~Curve Information
#--- ---- ----------------------------------- -------------------------------
DEPTH.F                                        :
CALI.IN                                       :Ultrasonic Caliper Average Diameter
DRHB.G/CC                                     :Bulk Density Correction  Bottom
DRHO.G/CC                                     :Bulk Density Correction
DRHU.G/CC                                     :Bulk Density Correction  Up
DT  .US/F                                     :Delta-T Compressional
GR  .GAPI                                     :Gamma Ray
NPHI.V/V                                      :Neutron Porosity
PEF .B/E                                      :Photoelectric Factor Bottom
RD  .OHMM                                     :Deep Resistivity
RHOB.G/CC                                     :Bulk Density
ROBB.G/CC                                     :Bulk Density  Bottom
ROBU.G/CC                                     :Bulk Density  Up
RS  .OHMM                                     :Shallow Resistivity
RT  .OHMM                                     :True Resistivity
#
~ASCII data
# ...
10371.501 
  8.5556 -999.25 0.00951 -999.25 60.2352 7.4301 0.064207 5.4633 9.3879 2.62 
  -999.25 -999.25 8.4118 8.6322 
10372.001 
  8.5737 -999.25 0.007752 -999.25 60.36 6.7857 0.064348 5.4857 9.3022 2.6159 
  -999.25 -999.25 8.4006 8.6965 
10372.501 
  8.5846 -999.25 0.011981 -999.25 58.9263 6.4372 0.056108 5.4928 9.2874 2.6214 
  -999.25 -999.25 8.4681 8.8803 
10373.001 
  8.5885 -999.25 0.010356 -999.25 58.71 7.3086 0.05797 5.746 9.3031 2.6168 
  -999.25 -999.25 8.4878 8.91 
10373.501 
  8.5393 -999.25 0.009731 -999.25 59.0693 8.0085 0.062373 5.9902 9.2911 2.6033 
  -999.25 -999.25 8.318 8.9148 
10374.001 
  8.4959 -999.25 0.013658 -999.25 57.9684 8.9913 0.061209 6.1174 9.383 2.5989 
  -999.25 -999.25 8.2172 8.8811 
10374.501 
  8.5297 -999.25 0.015045 -999.25 57.9274 9.0089 0.062128 5.8749 9.7008 2.5954 
  -999.25 -999.25 8.2891 8.3248 
10375.001 
  8.5509 -999.25 0.018983 -999.25 57.5926 9.1023 0.070907 5.5879 9.4244 2.6042 
  -999.25 -999.25 8.1414 8.374 
10375.501 
  8.5418 -999.25 0.019653 -999.25 56.8609 8.5929 0.068598 5.594 9.367 2.6081 
  -999.25 -999.25 7.8951 8.511 
10376.001 
  8.5223 -999.25 0.030161 -999.25 57.7596 8.9857 0.058473 5.7611 9.3764 2.6227 
  -999.25 -999.25 7.9835 8.4081 
10376.501 
  8.512 -999.25 0.03571 -999.25 59.1784 9.3803 0.061388 5.9846 9.2426 2.6265 
  -999.25 -999.25 7.8364 8.3776 
10377.001 
  8.4856 -999.25 0.028687 -999.25 58.5729 8.7104 0.053867 5.9118 9.0693 2.6311 
  -999.25 -999.25 8.1565 8.4375 
10377.501 
  8.4881 -999.25 0.021318 -999.25 56.6983 7.5792 0.0572 5.6764 8.8963 2.6263 
  -999.25 -999.25 8.1673 8.4702 
10378.001 
  8.5063 -999.25 0.014291 -999.25 57.6747 6.0857 0.059039 5.4129 8.7231 2.6354 
  -999.25 -999.25 8.3331 8.5447 
10378.501 
  8.5346 -999.25 0.007715 -999.25 57.1849 6.6301 0.052678 5.3323 8.8562 2.6339 
  -999.25 -999.25 8.2895 8.4714 
10379.001 
  8.5499 -999.25 0.009068 -999.25 57.6652 7.881 0.050746 5.4675 8.5618 2.628 
  -999.25 -999.25 8.556 8.5796 
10379.501 
  8.5653 -999.25 0.010097 -999.25 58.6912 9.3752 0.052848 5.65 8.3655 2.6218 
  -999.25 -999.25 8.6068 8.7394 
10380.001 
  8.4879 -999.25 0.013139 -999.25 59.6602 9.0445 0.054424 5.7346 8.4422 2.6212 
  -999.25 -999.25 8.5327 8.6829 
10380.501 
  8.4783 -999.25 0.00943 -999.25 60.7127 7.7839 0.051836 5.7228 8.382 2.6303 
  -999.25 -999.25 8.3998 8.5606 
10381.001 
  8.5213 -999.25 0.007813 -999.25 60.9733 6.7455 0.051014 5.7248 8.3208 2.631 
  -999.25 -999.25 8.2799 8.4145 
10381.501 
  8.5363 -999.25 0.013079 -999.25 61.4966 6.9352 0.052153 5.6109 8.1809 2.6327 
  -999.25 -999.25 8.0632 8.1451 
10382.001 
  8.5335 -999.25 0.015021 -999.25 61.5752 6.7057 0.054872 5.5869 8.1458 2.6296 
  -999.25 -999.25 8.2154 8.1337 
10382.501 
  8.5695 -999.25 0.018985 -999.25 61.9593 6.7208 0.057642 5.5697 8.0707 2.6269 
  -999.25 -999.25 8.0111 7.9678 
10383.001 
  8.5227 -999.25 0.028397 -999.25 62.3825 6.8222 0.05911 5.7474 8.0493 2.6264 
  -999.25 -999.25 7.8315 7.8479 
10383.501 
  8.5352 -999.25 0.034606 -999.25 61.0057 6.9926 0.061231 5.8222 7.9987 2.6153 
  -999.25 -999.25 7.5568 7.6327 
10384.001 
  8.5002 -999.25 0.037447 -999.25 60.1322 7.5101 0.062323 5.845 8.0117 2.6134 
  -999.25 -999.25 7.2955 7.4933 
10384.501 
  8.4511 -999.25 0.030332 -999.25 59.74 8.266 0.066741 5.7886 7.9349 2.6142 
  -999.25 -999.25 6.9981 7.4609 
10385.001 
  8.4586 -999.25 0.022046 -999.25 59.8159 8.5233 0.067174 5.7685 7.9652 2.6143 
  -999.25 -999.25 6.8522 7.2665 
10385.501 
  8.4591 -999.25 0.020724 -999.25 60.4063 8.1248 0.06459 5.7734 7.9787 2.615 
  -999.25 -999.25 6.6143 6.9347 
10386.001 
  8.4754 -999.25 0.014975 -999.25 60.7165 8.2526 0.063892 5.7196 7.8858 2.6057 
  -999.25 -999.25 6.383 6.6919 
10386.501 
  8.4653 -999.25 0.013144 -999.25 60.9701 8.7055 0.062684 5.5667 7.738 2.6002 
  -999.25 -999.25 6.0965 6.5079 
10387.001 
  8.4713 -999.25 0.006441 -999.25 61.3638 8.8717 0.064832 5.4332 7.805 2.5929 
  -999.25 -999.25 5.9185 6.3161 
10387.501 
  8.4745 -999.25 0.006422 -999.25 61.6455 8.5879 0.068537 5.3835 7.8858 2.5944 
  -999.25 -999.25 5.783 6.1439 
10388.001 
  8.4682 -999.25 0.004784 -999.25 62.4025 9.008 0.066288 5.3942 7.8108 2.6016 
  -999.25 -999.25 5.7831 6.0527 
10388.501 
  8.4622 -999.25 0.008733 -999.25 63.1468 9.445 0.064004 5.4288 7.7313 2.6045 
  -999.25 -999.25 5.9218 6.0043 
10389.001 
  8.4251 -999.25 0.004631 -999.25 62.3888 9.5797 0.065041 5.4948 7.7705 2.5971 
  -999.25 -999.25 6.0925 6.108 
10389.501 
  8.432 -999.25 0.003931 -999.25 62.2237 9.566 0.063564 5.5111 7.8364 2.5927 
  -999.25 -999.25 6.2617 6.2553 
10390.001 
  8.4363 -999.25 -0.000925 -999.25 61.3979 9.086 0.063532 5.5212 7.9866 2.5884 
  -999.25 -999.25 6.347 6.379 
10390.501 
  8.4338 -999.25 0.003435 -999.25 60.5385 9.4237 0.067461 5.4975 8.2143 2.5917 
  -999.25 -999.25 6.3647 6.5792 
10391.001 
  8.4313 -999.25 0.011249 -999.25 61.0858 9.2901 0.066669 5.531 8.3441 2.5881 
  -999.25 -999.25 6.4916 6.8667 
10391.501 
  8.4408 -999.25 0.008674 -999.25 60.117 9.8755 0.068348 5.546 8.4996 2.5889 
  -999.25 -999.25 6.5268 6.9238 
10392.001 
  8.4354 -999.25 0.006627 -999.25 58.4827 9.0495 0.068343 5.5793 8.7382 2.591 
  -999.25 -999.25 6.6319 7.0058 
10392.501 
  8.4307 -999.25 0.011233 -999.25 58.1459 8.5777 0.069414 5.6004 8.8624 2.6016 
  -999.25 -999.25 6.8962 7.8974 
10393.001 
  8.4238 -999.25 0.014691 -999.25 56.3223 8.379 0.071312 5.6528 8.8981 2.6073 
  -999.25 -999.25 6.9551 8.4374 
10393.501 
  8.4478 -999.25 0.017822 -999.25 57.4004 8.6924 0.069634 5.6789 9.4042 2.6127 
  -999.25 -999.25 7.0721 8.3107 
10394.001 
  8.4713 -999.25 0.030915 -999.25 59.0532 8.6449 0.065046 5.8408 9.5325 2.6187 
  -999.25 -999.25 7.467 8.9279 
10394.501 
  8.4518 -999.25 0.043694 -999.25 59.0408 8.9491 0.06205 6.0305 10.1359 2.6293 
  -999.25 -999.25 7.6732 8.9408 
10395.001 
  8.447 -999.25 0.052316 -999.25 57.4578 9.2928 0.060915 6.0867 10.0377 2.638 
  -999.25 -999.25 8.595 9.5269 
10395.501 
  8.4204 -999.25 0.038752 -999.25 57.12 10.1365 0.055281 5.9773 10.3802 2.6396 
  -999.25 -999.25 9.4157 10.1771 
10396.001 
  8.4512 -999.25 0.026062 -999.25 55.7633 10.4228 0.048088 5.7802 10.8156 2.6414 
  -999.25 -999.25 9.4411 10.7961 
10396.501 
  8.484 -999.25 0.02128 -999.25 55.8726 9.3407 0.049943 5.7744 10.8851 2.6386 
  -999.25 -999.25 9.759 11.2398 
10397.001 
  8.4651 -999.25 0.027506 -999.25 56.7455 7.5204 0.044523 5.7687 11.6249 2.6372 
  -999.25 -999.25 9.9531 11.1584 
10397.501 
  8.4566 -999.25 0.015429 -999.25 56.9894 7.6096 0.052401 5.7246 11.9583 2.6232 
  -999.25 -999.25 10.9077 11.4374 
10398.001 
  8.4629 -999.25 0.012949 -999.25 58.1651 8.7523 0.050069 5.6329 12.2008 2.6255 
  -999.25 -999.25 11.5496 11.8774 
10398.501 
  8.4844 -999.25 0.011771 -999.25 58.1677 10.9439 0.046113 5.5409 12.4021 2.6318 
  -999.25 -999.25 11.8388 12.2979 
10399.001 
  8.4784 -999.25 0.006124 -999.25 56.9567 10.0321 0.045594 5.4874 12.4729 2.6398 
  -999.25 -999.25 11.97 12.9211 
10399.501 
  8.5138 -999.25 0.000704 -999.25 56.5031 8.4483 0.045298 5.4934 12.7389 2.6365 
  -999.25 -999.25 12.1817 13.2676 
10400.001 
  8.5124 -999.25 0.001444 -999.25 55.5275 6.4999 0.046005 5.5109 13.1356 2.6324 
  -999.25 -999.25 12.6024 13.3582 
10400.501 
  8.5306 -999.25 0.014711 -999.25 56.7765 5.6657 0.041351 5.6882 13.4152 2.6336 
  -999.25 -999.25 13.0502 13.3488 
10401.001 
  8.5566 -999.25 0.019417 -999.25 58.1419 5.8673 0.042223 5.6353 13.434 2.6358 
  -999.25 -999.25 13.1281 13.4326 
10401.501 
  8.5629 -999.25 0.023618 -999.25 58.3195 6.5073 0.0452 5.6591 13.5787 2.648 
  -999.25 -999.25 13.2341 13.3181 
10402.001 
  8.5547 -999.25 0.020329 -999.25 58.5998 7.0753 0.0417 5.6052 13.5326 2.6558 
  -999.25 -999.25 13.3671 13.6981 
10402.501 
  8.5595 -999.25 0.024266 -999.25 57.1157 7.5718 0.043322 5.7472 13.641 2.6671 
  -999.25 -999.25 13.2673 13.8618 
10403.001 
  8.5633 -999.25 0.027452 -999.25 57.4112 8.3934 0.041818 5.8658 13.8177 2.6608 
  -999.25 -999.25 13.3116 14.0245 
10403.501 
  8.5412 -999.25 0.034536 -999.25 57.4315 9.2261 0.045387 5.8049 13.6882 2.6649 
  -999.25 -999.25 13.3472 14.0631 
