~Version Information
VERS.                2.00 :CWLS Log ASCII Standard
WRAP.                 YES :Multiple lines per depth step
#
~Well Information
#MNEM.UNIT               DATA                    DESCRIPTION OF MNEMONIC
#--- ---- ----------------------------------- -------------------------------
STRT.F                                  0.000 :START Depth
STOP.F                              13418.500 :STOP Depth
STEP.F                                  0.500 :STEP Length
NULL.                                -999.250 :NULL Value
DATE.                              2009-09-07 :LOG DATE
#
~Curve Information
#--- ---- ----------------------------------- -------------------------------
DEPTH.F                                        :
CALI.IN                                       :Ultrasonic Caliper Average Diameter
DRHB.G/CC                                     :Bulk Density Correction  Bottom
DRHO.G/CC                                     :Bulk Density Correction
DRHU.G/CC                                     :Bulk Density Correction  Up
DT  .US/F                                     :Delta-T Compressional
GR  .GAPI                                     :Gamma Ray
NPHI.V/V                                      :Neutron Porosity
PEF .B/E                                      :Photoelectric Factor Bottom
RD  .OHMM                                     :Deep Resistivity
RHOB.G/CC                                     :Bulk Density
ROBB.G/CC                                     :Bulk Density  Bottom
ROBU.G/CC                                     :Bulk Density  Up
RS  .OHMM                                     :Shallow Resistivity
RT  .OHMM                                     :True Resistivity
#
~ASCII data
# ...
12142.501 
  -999.25 0.0265 0.0265 0.16 64.5761 33.0053 0.109477 -999.25 3.43 2.613 
  2.613 2.5716 3.6466 4.0811 
12143.001 
  -999.25 0.025 0.025 0.1623 66.2011 28.8433 0.099506 -999.25 3.4929 2.6143 
  2.6143 2.5889 3.9364 4.1201 
12143.501 
  -999.25 0.0274 0.0274 0.1577 67.4319 25.7738 0.097912 -999.25 3.556 2.6205 
  2.6205 2.5998 4.2452 4.6622 
12144.001 
  -999.25 0.0272 0.0272 0.1619 66.5647 23.0045 0.08943 -999.25 3.687 2.6234 
  2.6234 2.6184 4.3721 4.8106 
12144.501 
  -999.25 0.0276 0.0276 0.1658 66.9216 22.3649 0.092012 -999.25 3.687 2.6175 
  2.6175 2.6342 4.4819 4.8449 
12145.001 
  -999.25 0.0312 0.0312 0.1657 66.465 21.8524 0.089412 -999.25 3.687 2.6276 
  2.6276 2.6285 4.4784 4.9118 
12145.501 
  -999.25 0.0288 0.0288 0.1792 66.0684 22.7681 0.089485 -999.25 3.687 2.6247 
  2.6247 2.6408 4.4894 4.933 
12146.001 
  -999.25 0.0221 0.0221 0.1757 68.2266 23.4738 0.088481 -999.25 3.687 2.618 
  2.618 2.6218 4.4666 4.7561 
12146.501 
  -999.25 0.0139 0.0139 0.1773 71.0433 25.3088 0.097556 -999.25 3.687 2.6038 
  2.6038 2.6241 4.4208 4.8028 
12147.001 
  -999.25 0.0108 0.0108 0.1831 71.1382 27.0124 0.098316 -999.25 3.687 2.5963 
  2.5963 2.6239 4.3901 4.8014 
12147.501 
  -999.25 0.0172 0.0172 0.1906 71.3268 28.6909 0.101711 -999.25 3.687 2.6046 
  2.6046 2.6305 4.1242 4.5273 
12148.001 
  -999.25 0.0281 0.0281 0.208 70.4999 29.8725 0.103923 -999.25 3.556 2.619 
  2.619 2.6363 4.0573 4.5458 
12148.501 
  -999.25 0.0393 0.0393 0.2232 69.3818 29.8663 0.11161 -999.25 3.556 2.6327 
  2.6327 2.6194 3.856 4.2287 
12149.001 
  -999.25 0.0444 0.0444 0.2541 68.5472 30.6578 0.117009 -999.25 3.556 2.6257 
  2.6257 2.6181 3.7619 4.2124 
12149.501 
  -999.25 0.0444 0.0444 0.2494 69.2796 31.2779 0.110528 -999.25 3.308 2.6159 
  2.6159 2.6054 3.6691 4.0377 
12150.001 
  -999.25 0.0415 0.0415 0.2372 70.2548 31.8063 0.111082 -999.25 3.308 2.6101 
  2.6101 2.6042 3.5637 3.7815 
12150.501 
  -999.25 0.0319 0.0319 0.2013 71.0854 32.1108 0.109384 -999.25 3.2495 2.6095 
  2.6095 2.5933 3.4896 3.7875 
12151.001 
  -999.25 0.0225 0.0225 0.1798 71.9623 32.4868 0.114574 -999.25 3.191 2.6096 
  2.6096 2.59 3.3911 3.6213 
12151.501 
  -999.25 0.0138 0.0138 0.1694 73.2174 33.4341 0.116548 -999.25 3.078 2.5997 
  2.5997 2.5979 3.3722 3.6181 
12152.001 
  -999.25 0.0186 0.0186 0.1732 74.4197 34.0109 0.116132 -999.25 3.078 2.597 
  2.597 2.606 3.3175 3.7392 
12152.501 
  -999.25 0.0256 0.0256 0.1738 74.9942 35.2985 0.130977 -999.25 3.1345 2.5986 
  2.5986 2.6085 3.1659 3.436 
12153.001 
  -999.25 0.0294 0.0294 0.1776 74.9519 36.2861 0.134729 -999.25 3.191 2.5974 
  2.5974 2.5998 2.9795 3.0243 
12153.501 
  -999.25 0.0287 0.0287 0.177 75.8969 38.5014 0.14096 -999.25 3.191 2.5968 
  2.5968 2.5981 2.8454 3.041 
12154.001 
  -999.25 0.0222 0.0222 0.1868 77.552 39.785 0.14003 -999.25 3.078 2.5823 
  2.5823 2.5939 2.8488 2.8901 
12154.501 
  -999.25 0.0254 0.0254 0.1979 77.6341 40.4945 0.145912 -999.25 3.1345 2.5846 
  2.5846 2.5989 2.814 2.8469 
12155.001 
  -999.25 0.0278 0.0278 0.1935 76.2924 40.6634 0.148669 -999.25 3.191 2.5875 
  2.5875 2.5962 2.6507 2.9862 
12155.501 
  -999.25 0.0371 0.0371 0.1874 73.4821 40.7382 0.148869 -999.25 3.308 2.595 
  2.595 2.5955 2.6438 2.9153 
12156.001 
  -999.25 0.0408 0.0408 0.1781 70.8967 41.8843 0.151022 -999.25 3.308 2.5907 
  2.5907 2.5853 2.539 2.4864 
12156.501 
  -999.25 0.0371 0.0371 0.1855 69.5314 42.8518 0.148654 -999.25 3.369 2.5838 
  2.5838 2.5879 2.7529 2.8604 
12157.001 
  -999.25 0.0299 0.0299 0.1825 68.8171 42.1484 0.128197 -999.25 3.43 2.5898 
  2.5898 2.5853 3.1378 3.267 
12157.501 
  -999.25 0.0198 0.0198 0.1823 68.5374 40.6641 0.123485 -999.25 3.43 2.5985 
  2.5985 2.5878 3.3309 3.5458 
12158.001 
  -999.25 0.0234 0.0234 0.1826 68.2 35.9428 0.113201 -999.25 3.308 2.6202 
  2.6202 2.5931 3.6069 3.8466 
12158.501 
  -999.25 0.0182 0.0182 0.1781 68.3751 32.9535 0.109311 -999.25 3.308 2.622 
  2.622 2.5985 3.7735 4.1307 
12159.001 
  -999.25 0.0215 0.0215 0.1792 69.0394 30.8136 0.106508 -999.25 3.308 2.6294 
  2.6294 2.6118 3.8424 4.1685 
12159.501 
  -999.25 0.0206 0.0206 0.1755 69.6229 31.3426 0.100606 -999.25 3.308 2.6293 
  2.6293 2.6133 3.7743 4.0146 
12160.001 
  -999.25 0.0281 0.0281 0.1819 70.5149 29.6411 0.10967 -999.25 3.191 2.6328 
  2.6328 2.6216 3.7096 3.9541 
12160.501 
  -999.25 0.0249 0.0249 0.1776 71.58 27.9544 0.112822 -999.25 3.191 2.6197 
  2.6197 2.6207 3.8183 4.1258 
12161.001 
  -999.25 0.0166 0.0166 0.1748 73.1334 27.819 0.113143 -999.25 3.191 2.6003 
  2.6003 2.6292 3.8242 4.0901 
12161.501 
  -999.25 0.0163 0.0163 0.1692 75.5473 29.4504 0.110837 -999.25 3.191 2.5974 
  2.5974 2.6278 3.7375 3.9008 
12162.001 
  -999.25 0.0172 0.0172 0.1656 78.2538 32.3848 0.113473 -999.25 3.191 2.5968 
  2.5968 2.6232 3.5312 3.5511 
12162.501 
  -999.25 0.0275 0.0275 0.1572 80.4869 33.9254 0.124484 -999.25 3.43 2.6067 
  2.6067 2.6088 3.361 3.3492 
12163.001 
  -999.25 0.0228 0.0228 0.1589 81.8006 37.7193 0.134708 -999.25 3.308 2.5889 
  2.5889 2.6074 3.2254 3.4176 
12163.501 
  -999.25 0.0237 0.0237 0.1557 80.9783 39.7231 0.137725 -999.25 3.308 2.5814 
  2.5814 2.6065 2.851 2.8128 
12164.001 
  -999.25 0.0208 0.0208 0.1603 78.6825 43.9671 0.143158 -999.25 3.308 2.568 
  2.568 2.6008 2.6084 2.6631 
12164.501 
  -999.25 0.0371 0.0371 0.1532 75.0655 45.8649 0.156224 -999.25 3.308 2.5815 
  2.5815 2.5843 2.4032 2.6179 
12165.001 
  -999.25 0.0471 0.0471 0.1512 72.1402 49.1825 0.143625 -999.25 3.43 2.5832 
  2.5832 2.5736 2.3378 2.4561 
12165.501 
  -999.25 0.0518 0.0518 0.1517 70.2388 48.8259 0.14119 -999.25 3.43 2.5992 
  2.5992 2.5784 2.2115 2.2664 
12166.001 
  -999.25 0.038 0.038 0.1564 68.197 46.8299 0.127573 -999.25 3.191 2.6042 
  2.6042 2.5873 2.5632 2.5245 
12166.501 
  -999.25 0.0238 0.0238 0.153 67.4304 41.3971 0.116253 -999.25 3.308 2.6141 
  2.6141 2.5816 3.126 3.3739 
12167.001 
  -999.25 0.0162 0.0162 0.147 67.9277 35.9781 0.105579 -999.25 3.369 2.6132 
  2.6132 2.587 3.5712 3.9663 
12167.501 
  -999.25 0.0113 0.0113 0.1394 68.3748 32.7149 0.104169 -999.25 3.43 2.6073 
  2.6073 2.5932 3.5641 3.7349 
12168.001 
  -999.25 0.0168 0.0168 0.146 68.4903 30.6888 0.100649 -999.25 3.556 2.6091 
  2.6091 2.6167 3.6472 3.7582 
12168.501 
  -999.25 0.0161 0.0161 0.1436 68.8878 29.6813 0.098679 -999.25 3.687 2.6094 
  2.6094 2.615 3.742 3.9612 
12169.001 
  -999.25 0.0185 0.0185 0.1462 69.2273 28.0999 0.100069 -999.25 3.687 2.609 
  2.609 2.6124 3.7954 4.0386 
12169.501 
  -999.25 0.0151 0.0151 0.1431 70.0191 27.4897 0.101273 -999.25 3.7551 2.604 
  2.604 2.6059 3.7977 4.0529 
12170.001 
  -999.25 0.0138 0.0138 0.1484 70.3638 28.6578 0.103175 -999.25 3.823 2.6033 
  2.6033 2.6131 3.9126 4.2346 
12170.501 
  -999.25 0.0129 0.0129 0.1515 69.1871 30.5846 0.105622 -999.25 3.823 2.6051 
  2.6051 2.6156 3.8591 4.1047 
12171.001 
  -999.25 0.0176 0.0176 0.1582 68.6633 32.1832 0.104557 -999.25 3.823 2.6148 
  2.6148 2.6193 3.8595 4.21 
12171.501 
  -999.25 0.0149 0.0149 0.1562 68.406 32.7078 0.100446 -999.25 3.823 2.6088 
  2.6088 2.6085 4.009 4.1692 
12172.001 
  -999.25 0.0196 0.0196 0.1553 68.362 32.0099 0.098548 -999.25 3.823 2.616 
  2.616 2.6073 4.0122 4.2316 
12172.501 
  -999.25 0.0143 0.0143 0.1506 69.5837 32.3829 0.100458 -999.25 3.732 2.6121 
  2.6121 2.6103 4.2089 4.4974 
12173.001 
  -999.25 0.0175 0.0175 0.1461 72.0852 32.4756 0.100871 -999.25 3.789 2.6181 
  2.6181 2.6202 3.8996 4.0898 
12173.501 
  -999.25 0.017 0.017 0.1491 73.3147 32.6149 0.104791 -999.25 3.823 2.6123 
  2.6123 2.6259 3.791 4.028 
12174.001 
  -999.25 0.0174 0.0174 0.1457 72.5154 32.4892 0.107067 -999.25 3.755 2.6113 
  2.6113 2.6202 3.7875 4.082 
12174.501 
  -999.25 0.0328 0.0328 0.1482 71.5165 33.6783 0.11179 -999.25 3.823 2.6179 
  2.6179 2.6171 3.9009 4.1232 
12175.001 
  -999.25 0.0509 0.0509 0.131 70.5175 34.6297 0.10786 -999.25 3.687 2.6224 
  2.6224 2.6052 3.737 4.0841 
12175.501 
  -999.25 0.0636 0.0636 0.1264 70.9742 36.5615 0.107365 -999.25 3.687 2.6218 
  2.6218 2.6056 3.4961 3.728 
12176.001 
  -999.25 0.0647 0.0647 0.1216 70.9987 37.1261 0.108432 -999.25 3.687 2.6292 
  2.6292 2.5949 3.3788 3.4291 
