~Version Information
VERS.                2.00 :CWLS Log ASCII Standard
WRAP.                  NO :One line per depth step
#
~Well Information
#MNEM.UNIT               DATA                    DESCRIPTION OF MNEMONIC
#--- ---- ----------------------------------- -------------------------------
STRT.F                               8494.000 :START Depth
STOP.F                              13418.500 :STOP Depth
STEP.F                                  0.500 :STEP Length
NULL.                                -999.250 :NULL Value
DATE.                              2009-09-07 :LOG DATE
#
~Curve Information
#--- ---- ----------------------------------- -------------------------------
DEPTH.F                                        :
BVW .V/V                                      :Bound Volume Water
CARB_FLAG.UNITLESS                                     :Carbonate flag
COAL_FLAG.UNITLESS                                     :Coal flag
KLOGH.MD                                       :Calculated Horizontal Permeability From Logs
PHIF.V/V                                      :Final Porosity
SAND_FLAG.UNITLESS                                     :Sand Flag
SW  .V/V                                      :Water Saturation
VSH .V/V                                      :Volume of Shale
#
~ASCII data
# ...
10689.001 0.0772 0 0 0.001 0.077198 0 1 0.1478 
10689.501 0.0719 0 0 0.001 0.071922 0 1 0.1394 
10690.001 0.071 0 0 0.001 0.071024 0 1 0.1404 
10690.501 0.0756 0 0 0.001 0.075616 0 1 0.1485 
10691.001 0.0754 0 0 0.001 0.07537 0 1 0.1738 
10691.501 0.0765 0 0 0.001 0.076523 0 1 0.1769 
10692.001 0.0758 0 0 0.001 0.075821 0 1 0.169 
10692.501 0.0724 0 0 0.001 0.07239 0 1 0.156 
10693.001 0.0731 0 0 0.001 0.073118 0 1 0.1518 
10693.501 0.0856 0 0 0.001 0.085631 0 1 0.1417 
10694.001 0.0944 0 0 0.001 0.09442 0 1 0.1309 
10694.501 0.0951 0 0 0.001 0.095068 0 1 0.1238 
10695.001 0.084 0 0 0.001 0.084042 0 1 0.1265 
10695.501 0.0833 0 0 0.001 0.083283 0 1 0.1178 
10696.001 0.0793 0 0 0.001 0.079315 0 1 0.113 
10696.501 0.0841 0 0 0.001 0.084113 0 1 0.1074 
10697.001 0.0829 0 0 0.001 0.082912 0 1 0.1027 
10697.501 0.0915 0 0 0.001 0.091515 0 1 0.0952 
10698.001 0.0902 0 0 0.001 0.090235 0 1 0.1014 
10698.501 0.0881 0 0 0.001 0.088131 0 1 0.1099 
10699.001 0.0814 0 0 0.001 0.08143 0 1 0.1161 
10699.501 0.0799 0 0 0.001 0.079863 0 1 0.116 
10700.001 0.0763 0 0 0.001 0.076291 0 1 0.1209 
10700.501 0.0769 0 0 0.001 0.076935 0 1 0.1222 
10701.001 0.0836 0 0 0.001 0.083587 0 1 0.1135 
10701.501 0.0891 0 0 0.001 0.089131 0 1 0.1105 
10702.001 0.0941 0 0 0.001 0.09407 0 1 0.102 
10702.501 0.0869 0 0 0.001 0.0869 0 1 0.1068 
10703.001 0.0891 0 0 0.001 0.089121 0 1 0.1117 
10703.501 0.0886 0 0 0.001 0.088618 0 1 0.1167 
10704.001 0.0955 0 0 0.001 0.095528 0 1 0.1142 
10704.501 0.0897 0 0 0.001 0.089726 0 1 0.1083 
10705.001 0.0914 0 0 0.001 0.09138 0 1 0.1055 
10705.501 0.085 0 0 0.001 0.084976 0 1 0.1019 
10706.001 0.0889 0 0 0.001 0.088857 0 1 0.1084 
10706.501 0.0793 0 0 0.001 0.07935 0 1 0.1135 
10707.001 0.0768 0 0 0.001 0.076825 0 1 0.1125 
10707.501 0.0836 0 0 0.001 0.083642 0 1 0.0997 
10708.001 0.0961 0 0 0.001 0.0961 0 1 0.0894 
10708.501 0.0963 0 0 0.001 0.09632 0 1 0.103 
10709.001 0.0775 0 0 0.001 0.077454 0 1 0.1091 
10709.501 0.0696 0 0 0.001 0.069627 0 1 0.1206 
10710.001 0.0742 0 0 0.001 0.074165 0 1 0.1027 
10710.501 0.084 0 0 0.001 0.083991 0 1 0.0967 
10711.001 0.0867 0 0 0.001 0.086681 0 1 0.0865 
10711.501 0.0855 0 0 0.001 0.085497 0 1 0.0864 
10712.001 0.085 0 0 0.001 0.084973 0 1 0.0842 
10712.501 0.0883 0 0 0.001 0.088326 0 1 0.0871 
10713.001 0.0922 0 0 0.001 0.092169 0 1 0.0901 
10713.501 0.0974 0 0 0.001 0.097355 0 1 0.0919 
10714.001 0.092 0 0 0.001 0.091968 0 1 0.0883 
10714.501 0.0833 0 0 0.001 0.083276 0 1 0.0765 
10715.001 0.0726 0 0 0.001 0.072553 0 1 0.08 
10715.501 0.0741 0 0 0.001 0.074091 0 1 0.0944 
10716.001 0.0786 0 0 0.001 0.078636 0 1 0.111 
10716.501 0.0897 0 0 0.001 0.089691 0 1 0.1145 
10717.001 0.0932 0 0 0.001 0.093223 0 1 0.0975 
10717.501 0.0952 0 0 0.001 0.095206 0 1 0.0877 
10718.001 0.0948 0 0 0.001 0.094778 0 1 0.0778 
10718.501 0.0892 0 0 0.001 0.089181 0 1 0.0739 
10719.001 0.0948 0 0 0.001 0.094813 0 1 0.0666 
10719.501 0.0919 0 0 0.001 0.091888 0 1 0.0733 
10720.001 0.0964 0 0 0.001 0.09636 0 1 0.0811 
10720.501 0.106 0 0 0.001 0.105993 1 1 0.0952 
10721.001 0.1166 0 0 0.001 0.118534 1 0.9839 0.0856 
10721.501 0.1161 0 0 0.001 0.122937 1 0.9443 0.08 
10722.001 0.1156 0 0 0.001 0.117798 1 0.9815 0.0802 
10722.501 0.1168 0 0 0.001 0.120975 1 0.9653 0.0849 
10723.001 0.1202 0 0 0.001 0.125203 1 0.9603 0.0874 
10723.501 0.1237 0 0 0.001 0.130391 1 0.9487 0.0827 
10724.001 0.1279 0 0 0.001 0.131391 1 0.9734 0.0853 
10724.501 0.1316 0 0 0.001 0.137728 1 0.9555 0.0893 
10725.001 0.133 0 0 0.001 0.133867 1 0.9932 0.0966 
10725.501 0.1317 0 0 0.001 0.131685 1 1 0.0927 
10726.001 0.1239 0 0 0.001 0.123882 1 1 0.0835 
10726.501 0.1292 0 0 0.001 0.129247 1 1 0.0776 
10727.001 0.127 0 0 0.001 0.127026 1 1 0.0742 
10727.501 0.1289 0 0 0.001 0.128912 1 1 0.069 
10728.001 0.1269 0 0 0.001 0.126935 1 1 0.0583 
10728.501 0.1299 0 0 0.001 0.129933 1 1 0.0488 
10729.001 0.1291 0 0 0.001 0.12909 1 1 0.0595 
10729.501 0.1267 0 0 0.001 0.126683 1 1 0.0712 
10730.001 0.1189 0 0 0.001 0.118937 1 1 0.0835 
10730.501 0.1083 0 0 0.001 0.108258 1 1 0.0906 
10731.001 0.104 0 0 0.001 0.104001 1 1 0.0901 
10731.501 0.1101 0 0 0.001 0.110082 1 1 0.0888 
10732.001 0.1181 0 0 0.001 0.118081 1 1 0.0831 
10732.501 0.1296 0 0 0.001 0.129632 1 1 0.0754 
10733.001 0.1306 0 0 0.001 0.132853 1 0.9829 0.0708 
10733.501 0.1316 0 0 0.001 0.13573 1 0.9695 0.0678 
10734.001 0.1231 0 0 0.001 0.123083 1 1 0.0724 
10734.501 0.1123 0 0 0.001 0.112273 1 1 0.0713 
10735.001 0.1023 0 0 0.001 0.102338 1 1 0.0742 
10735.501 0.1023 0 0 0.001 0.102297 1 1 0.0738 
10736.001 0.0991 0 0 0.001 0.09914 0 1 0.0828 
10736.501 0.097 0 0 0.001 0.096975 0 1 0.0751 
10737.001 0.0914 0 0 0.001 0.091405 0 1 0.0763 
10737.501 0.0851 0 0 0.001 0.085054 0 1 0.0698 
10738.001 0.0773 0 0 0.001 0.077328 0 1 0.073 
10738.501 0.0684 0 0 0.001 0.068397 0 1 0.0752 
10739.001 0.0644 0 0 0.001 0.064385 0 1 0.0804 
10739.501 0.0609 0 0 0.001 0.060915 0 1 0.0836 
10740.001 0.0585 0 0 0.001 0.058505 0 1 0.0808 
10740.501 0.058 0 0 0.001 0.058048 0 1 0.0797 
10741.001 0.0624 0 0 0.001 0.062375 0 1 0.0855 
10741.501 0.0646 0 0 0.001 0.064649 0 1 0.089 
10742.001 0.0666 0 0 0.001 0.066596 0 1 0.0944 
10742.501 0.0623 0 0 0.001 0.062324 0 1 0.0862 
10743.001 0.065 0 0 0.001 0.064952 0 1 0.0859 
10743.501 0.0671 0 0 0.001 0.067052 0 1 0.0825 
10744.001 0.0728 0 0 0.001 0.072828 0 1 0.1025 
10744.501 0.0799 0 0 0.001 0.079857 0 1 0.1118 
10745.001 0.0857 0 0 0.001 0.085658 0 1 0.1191 
10745.501 0.0853 0 0 0.001 0.085298 0 1 0.1143 
10746.001 0.0774 0 0 0.001 0.077367 0 1 0.1185 
10746.501 0.0659 0 0 0.001 0.065897 0 1 0.1221 
10747.001 0.0642 0 0 0.001 0.064163 0 1 0.125 
10747.501 0.0683 0 0 0.001 0.068339 0 1 0.1193 
10748.001 0.071 0 0 0.001 0.071042 0 1 0.1172 
10748.501 0.062 0 0 0.001 0.061951 0 1 0.1022 
10749.001 0.0518 0 0 0.001 0.051769 0 1 0.0956 
10749.501 0.0448 0 0 0.001 0.044836 0 1 0.086 
10750.001 0.0463 0 0 0.001 0.046303 0 1 0.0799 
10750.501 0.0443 0 0 0.001 0.044333 0 1 0.0831 
10751.001 0.0506 0 0 0.001 0.050604 0 1 0.0996 
10751.501 0.057 0 0 0.001 0.057004 0 1 0.1177 
10752.001 0.0553 0 0 0.001 0.055348 0 1 0.1186 
10752.501 0.0555 0 0 0.001 0.055511 0 1 0.1142 
10753.001 0.0463 0 0 0.001 0.046304 0 1 0.1109 
10753.501 0.0517 0 0 0.001 0.051684 0 1 0.1076 
10754.001 0.0565 0 0 0.001 0.05655 0 1 0.1075 
10754.501 0.0591 0 0 0.001 0.059126 0 1 0.1036 
10755.001 0.0514 0 0 0.001 0.051359 0 1 0.1069 
10755.501 0.0473 0 0 0.001 0.047327 0 1 0.0952 
10756.001 0.0508 0 0 0.001 0.050842 0 1 0.0958 
10756.501 0.0539 0 0 0.001 0.053948 0 1 0.0936 
10757.001 0.0461 0 0 0.001 0.046131 0 1 0.0978 
10757.501 0.046 0 0 0.001 0.045966 0 1 0.1041 
10758.001 0.0509 0 0 0.001 0.050902 0 1 0.1103 
10758.501 0.0578 0 0 0.001 0.057798 0 1 0.1062 
10759.001 0.0555 0 0 0.001 0.055471 0 1 0.0938 
10759.501 0.0584 0 0 0.001 0.058369 0 1 0.0977 
10760.001 0.0524 0 0 0.001 0.052419 0 1 0.1092 
10760.501 0.0564 0 0 0.001 0.05642 0 1 0.1171 
10761.001 0.0626 0 0 0.001 0.062627 0 1 0.1138 
10761.501 0.0711 0 0 0.001 0.071142 0 1 0.1096 
10762.001 0.0711 0 0 0.001 0.071056 0 1 0.106 
10762.501 0.0685 0 0 0.001 0.068537 0 1 0.0952 
10763.001 0.0757 0 0 0.001 0.075709 0 1 0.0924 
10763.501 0.0812 0 0 0.001 0.081217 0 1 0.0966 
10764.001 0.0828 0 0 0.001 0.082812 0 1 0.0938 
10764.501 0.0852 0 0 0.001 0.08521 0 1 0.0917 
10765.001 0.0878 0 0 0.001 0.087816 0 1 0.0953 
10765.501 0.0898 0 0 0.001 0.089825 0 1 0.0955 
10766.001 0.0887 0 0 0.001 0.08867 0 1 0.1079 
10766.501 0.0957 0 0 0.001 0.095709 0 1 0.1119 
10767.001 0.1039 0 0 0.001 0.103917 1 1 0.1131 
10767.501 0.1052 0 0 0.001 0.105231 1 1 0.108 
10768.001 0.103 0 0 0.001 0.102986 1 1 0.0994 
10768.501 0.0945 0 0 0.001 0.094457 0 1 0.1096 
10769.001 0.0896 0 0 0.001 0.089636 0 1 0.1045 
10769.501 0.0875 0 0 0.001 0.087477 0 1 0.105 
10770.001 0.0879 0 0 0.001 0.08786 0 1 0.1071 
10770.501 0.0992 0 0 0.001 0.099152 0 1 0.114 
10771.001 0.1094 0 0 0.001 0.109402 1 1 0.1187 
10771.501 0.1175 0 0 0.001 0.117518 1 1 0.1142 
10772.001 0.1181 0 0 0.001 0.118138 1 1 0.1102 
