~Version Information
VERS.                2.00 :CWLS Log ASCII Standard
WRAP.                 YES :Multiple lines per depth step
#
~Well Information
#MNEM.UNIT               DATA                    DESCRIPTION OF MNEMONIC
#--- ---- ----------------------------------- -------------------------------
STRT.F                                  0.000 :START Depth
STOP.F                              13418.500 :STOP Depth
STEP.F                                  0.500 :STEP Length
NULL.                                -999.250 :NULL Value
DATE.                              2009-09-07 :LOG DATE
#
~Curve Information
#--- ---- ----------------------------------- -------------------------------
DEPTH.F                                        :
CALI.IN                                       :Ultrasonic Caliper Average Diameter
DRHB.G/CC                                     :Bulk Density Correction  Bottom
DRHO.G/CC                                     :Bulk Density Correction
DRHU.G/CC                                     :Bulk Density Correction  Up
DT  .US/F                                     :Delta-T Compressional
GR  .GAPI                                     :Gamma Ray
NPHI.V/V                                      :Neutron Porosity
PEF .B/E                                      :Photoelectric Factor Bottom
RD  .OHMM                                     :Deep Resistivity
RHOB.G/CC                                     :Bulk Density
ROBB.G/CC                                     :Bulk Density  Bottom
ROBU.G/CC                                     :Bulk Density  Up
RS  .OHMM                                     :Shallow Resistivity
RT  .OHMM                                     :True Resistivity
#
~ASCII data
# ...
9201.000 
  8.4694 -999.25 0.014593 -999.25 104.669 33.4755 0.244136 2.544 0.3918 2.1869 
  -999.25 -999.25 0.3496 0.2957 
9201.500 
  8.4613 -999.25 0.01165 -999.25 105.26 32.3973 0.26243 2.586 0.4194 2.1822 
  -999.25 -999.25 0.346 0.2907 
9202.000 
  8.4501 -999.25 0.016026 -999.25 105.57 32.9503 0.251679 2.5769 0.4103 2.1865 
  -999.25 -999.25 0.337 0.2981 
9202.500 
  8.4674 -999.25 0.011672 -999.25 105.832 32.6862 0.269334 2.6739 0.4126 2.1779 
  -999.25 -999.25 0.3475 0.3007 
9203.000 
  8.4547 -999.25 0.018313 -999.25 105.968 32.1588 0.274827 2.9063 0.4075 2.1807 
  -999.25 -999.25 0.3397 0.2991 
9203.500 
  8.4489 -999.25 0.021009 -999.25 105.847 31.5348 0.254791 3.2818 0.4218 2.1718 
  -999.25 -999.25 0.3441 0.2823 
9204.000 
  8.4264 -999.25 0.031538 -999.25 105.686 31.1427 0.254808 3.7466 0.4236 2.1732 
  -999.25 -999.25 0.3399 0.3045 
9204.500 
  8.4613 -999.25 0.03612 -999.25 106.049 30.8037 0.245938 3.8106 0.4335 2.1767 
  -999.25 -999.25 0.3405 0.3015 
9205.000 
  8.4649 -999.25 0.029995 -999.25 105.773 29.9411 0.275105 3.4736 0.424 2.1782 
  -999.25 -999.25 0.3506 0.3018 
9205.500 
  8.4538 -999.25 0.021686 -999.25 105.998 29.3476 0.252434 3.0185 0.388 2.1757 
  -999.25 -999.25 0.3459 0.3046 
9206.000 
  8.4671 -999.25 0.013905 -999.25 106.1 30.5825 0.249056 2.7736 0.4 2.1695 
  -999.25 -999.25 0.3351 0.2928 
9206.500 
  8.4499 -999.25 0.017493 -999.25 106.166 30.9157 0.270005 2.8437 0.3971 2.1699 
  -999.25 -999.25 0.3361 0.2924 
9207.000 
  8.4465 -999.25 0.021059 -999.25 105.725 32.9985 0.271212 2.8549 0.4093 2.1742 
  -999.25 -999.25 0.338 0.3106 
9207.500 
  8.4693 -999.25 0.018454 -999.25 105.318 32.3492 0.290735 2.7533 0.3998 2.171 
  -999.25 -999.25 0.3348 0.2865 
9208.000 
  8.4813 -999.25 0.013725 -999.25 104.778 33.2828 0.258292 2.6097 0.3961 2.1682 
  -999.25 -999.25 0.3338 0.3045 
9208.500 
  8.4894 -999.25 0.011414 -999.25 106.324 31.8395 0.250429 2.5387 0.3842 2.1712 
  -999.25 -999.25 0.3289 0.3014 
9209.000 
  8.5003 -999.25 0.01247 -999.25 106.606 31.0551 0.269077 2.5649 0.3957 2.1779 
  -999.25 -999.25 0.3358 0.3008 
9209.500 
  8.4992 -999.25 0.012665 -999.25 107.168 29.6485 0.239726 2.5438 0.4111 2.1831 
  -999.25 -999.25 0.349 0.3103 
9210.000 
  8.5045 -999.25 0.016811 -999.25 107.472 30.7457 0.243422 2.6147 0.4046 2.1923 
  -999.25 -999.25 0.3654 0.3089 
9210.500 
  8.5009 -999.25 0.018956 -999.25 107.104 31.824 0.261123 2.6537 0.4178 2.2009 
  -999.25 -999.25 0.3768 0.3116 
9211.000 
  8.4995 -999.25 0.022427 -999.25 106.219 33.017 0.258887 2.7691 0.4316 2.2072 
  -999.25 -999.25 0.3997 0.3236 
9211.500 
  8.5031 -999.25 0.013764 -999.25 105.952 31.4357 0.271142 2.7732 0.4056 2.1922 
  -999.25 -999.25 0.4126 0.3355 
9212.000 
  8.4747 -999.25 0.014485 -999.25 105.702 30.3376 0.271988 2.8032 0.4208 2.1858 
  -999.25 -999.25 0.4131 0.3554 
9212.500 
  8.4791 -999.25 0.01038 -999.25 105.373 30.7119 0.257261 2.7509 0.4236 2.1736 
  -999.25 -999.25 0.4113 0.3753 
9213.000 
  8.4894 -999.25 0.011498 -999.25 104.874 31.4846 0.24481 2.7247 0.423 2.1651 
  -999.25 -999.25 0.4043 0.3782 
9213.500 
  8.4875 -999.25 0.009286 -999.25 104.607 31.2562 0.236456 2.633 0.4209 2.1526 
  -999.25 -999.25 0.4001 0.3536 
9214.000 
  8.4932 -999.25 0.003884 -999.25 104.839 30.0146 0.269488 2.5297 0.4244 2.1366 
  -999.25 -999.25 0.3865 0.3407 
9214.500 
  8.4704 -999.25 0.004547 -999.25 105.98 29.8282 0.251326 2.398 0.4664 2.1373 
  -999.25 -999.25 0.3718 0.3268 
9215.000 
  8.4811 -999.25 0.004154 -999.25 106.629 31.1144 0.265982 2.2939 0.4468 2.1446 
  -999.25 -999.25 0.3513 0.3145 
9215.500 
  8.4989 -999.25 0.010287 -999.25 106.702 31.2598 0.278109 2.2894 0.5238 2.1686 
  -999.25 -999.25 0.3393 0.2986 
9216.000 
  8.5096 -999.25 0.009997 -999.25 106.79 32.1867 0.265448 2.364 0.4075 2.1882 
  -999.25 -999.25 0.3647 0.3294 
9216.500 
  8.4954 -999.25 0.005353 -999.25 106.39 31.9033 0.248346 2.4028 0.3505 2.1919 
  -999.25 -999.25 0.3744 0.3587 
9217.000 
  8.505 -999.25 0.001343 -999.25 106.435 30.6607 0.238458 2.4099 0.3654 2.1891 
  -999.25 -999.25 0.376 0.3725 
9217.500 
  8.4967 -999.25 0.003152 -999.25 106.41 27.764 0.269333 2.3685 0.3732 2.1874 
  -999.25 -999.25 0.3767 0.377 
9218.000 
  8.5017 -999.25 0.00753 -999.25 105.518 27.7361 0.258113 2.3792 0.3434 2.19 
  -999.25 -999.25 0.3865 0.3555 
9218.500 
  8.4717 -999.25 0.0149 -999.25 104.162 29.5845 0.258795 2.4074 0.4407 2.2085 
  -999.25 -999.25 0.3689 0.3176 
9219.000 
  8.4887 -999.25 0.014068 -999.25 103.695 34.276 0.252465 2.6622 0.3056 2.2231 
  -999.25 -999.25 0.4044 0.2872 
9219.500 
  8.496 -999.25 0.01054 -999.25 103.36 39.2893 0.2552 3.2389 0.3732 2.2421 
  -999.25 -999.25 0.5287 0.4588 
9220.000 
  8.5373 -999.25 0.003561 -999.25 102.908 43.5014 0.254729 3.507 0.4047 2.2282 
  -999.25 -999.25 0.5972 0.4829 
9220.500 
  8.5347 -999.25 -0.001635 -999.25 102.826 45.3342 0.261315 3.2261 0.4131 2.1938 
  -999.25 -999.25 0.6595 0.5111 
9221.000 
  8.5195 -999.25 -0.001611 -999.25 103.043 43.1085 0.26991 2.6066 0.3832 2.1603 
  -999.25 -999.25 0.6409 0.4993 
9221.500 
  8.4981 -999.25 -0.000334 -999.25 103.659 39.2345 0.27147 2.3245 0.3673 2.1524 
  -999.25 -999.25 0.5166 0.3949 
9222.000 
  8.4952 -999.25 0.000468 -999.25 104.813 36.4288 0.259896 2.2957 0.3938 2.1572 
  -999.25 -999.25 0.3972 0.4014 
9222.500 
  8.4777 -999.25 0.002144 -999.25 105.065 34.1474 0.250468 2.2592 0.2957 2.166 
  -999.25 -999.25 0.3833 0.3396 
9223.000 
  8.4957 -999.25 0.002279 -999.25 104.156 32.9759 0.227597 2.2399 0.3466 2.1665 
  -999.25 -999.25 0.3399 0.2656 
9223.500 
  8.4929 -999.25 0.001189 -999.25 103.224 31.4035 0.252215 2.2125 0.321 2.1668 
  -999.25 -999.25 0.3377 0.2657 
9224.000 
  8.5049 -999.25 -0.001671 -999.25 102.568 31.1771 0.25065 2.1579 0.4029 2.1669 
  -999.25 -999.25 0.3387 0.3064 
9224.500 
  8.4994 -999.25 -0.001947 -999.25 102.779 30.8811 0.263234 2.1921 0.393 2.1654 
  -999.25 -999.25 0.3322 0.2756 
9225.000 
  8.5081 -999.25 -0.000624 -999.25 101.596 30.6509 0.26393 2.3336 0.3954 2.1642 
  -999.25 -999.25 0.3346 0.3297 
9225.500 
  8.4839 -999.25 0.004219 -999.25 100.715 30.2142 0.271038 2.6523 0.3943 2.167 
  -999.25 -999.25 0.3351 0.3018 
9226.000 
  8.462 -999.25 0.011427 -999.25 100.944 31.1026 0.272071 2.9577 0.3778 2.17 
  -999.25 -999.25 0.336 0.3005 
9226.500 
  8.445 -999.25 0.021903 -999.25 100.298 31.8372 0.267433 3.3065 0.4039 2.1758 
  -999.25 -999.25 0.3488 0.3057 
9227.000 
  8.4525 -999.25 0.037618 -999.25 100 32.227 0.267284 3.7406 0.3873 2.188 
  -999.25 -999.25 0.3543 0.2959 
9227.500 
  8.459 -999.25 0.044207 -999.25 100.331 31.2938 0.244033 4.0149 0.3806 2.1903 
  -999.25 -999.25 0.3652 0.3188 
9228.000 
  8.5046 -999.25 0.040544 -999.25 100.514 30.3204 0.246201 4.0486 0.4034 2.187 
  -999.25 -999.25 0.4 0.3664 
9228.500 
  8.4937 -999.25 0.030997 -999.25 100.624 29.8598 0.250108 3.9479 0.4322 2.1788 
  -999.25 -999.25 0.4451 0.3886 
9229.000 
  8.4578 -999.25 0.033875 -999.25 100.67 29.8376 0.228204 3.8899 0.4538 2.1922 
  -999.25 -999.25 0.4946 0.4333 
9229.500 
  8.4481 -999.25 0.031469 -999.25 100.927 29.6268 0.248762 3.617 0.4923 2.203 
  -999.25 -999.25 0.5335 0.4616 
9230.000 
  8.4304 -999.25 0.027511 -999.25 100.658 28.376 0.240109 3.2936 0.5231 2.2131 
  -999.25 -999.25 0.5741 0.497 
9230.500 
  8.4571 -999.25 0.015618 -999.25 100.775 26.6364 0.262181 3.0421 0.5235 2.2049 
  -999.25 -999.25 0.5915 0.5282 
9231.000 
  8.4869 -999.25 0.018116 -999.25 100.71 26.5195 0.229856 3.0126 0.56 2.2066 
  -999.25 -999.25 0.6034 0.535 
9231.500 
  8.4909 -999.25 0.019941 -999.25 101.07 27.449 0.257218 3.0056 0.5679 2.2079 
  -999.25 -999.25 0.6109 0.5405 
9232.000 
  8.495 -999.25 0.023869 -999.25 101.224 29.4078 0.250487 3.031 0.5553 2.2158 
  -999.25 -999.25 0.6141 0.5489 
9232.500 
  8.4978 -999.25 0.025364 -999.25 100.867 29.3293 0.252675 2.9902 0.5725 2.2178 
  -999.25 -999.25 0.6118 0.5532 
9233.000 
  8.5003 -999.25 0.018085 -999.25 100.666 28.6109 0.254968 2.8401 0.5629 2.2101 
  -999.25 -999.25 0.6049 0.5627 
9233.500 
  8.5031 -999.25 0.015061 -999.25 100.844 27.3775 0.260036 2.7794 0.5607 2.207 
  -999.25 -999.25 0.5986 0.5625 
