~Version Information
VERS.                2.00 :CWLS Log ASCII Standard
WRAP.                  NO :One line per depth step
#
~Well Information
#MNEM.UNIT               DATA                    DESCRIPTION OF MNEMONIC
#--- ---- ----------------------------------- -------------------------------
STRT.F                               8494.000 :START Depth
STOP.F                              13418.500 :STOP Depth
STEP.F                                  0.500 :STEP Length
NULL.                                -999.250 :NULL Value
DATE.                              2009-09-07 :LOG DATE
#
~Curve Information
#--- ---- ----------------------------------- -------------------------------
DEPTH.F                                        :
BVW .V/V                                      :Bound Volume Water
CARB_FLAG.UNITLESS                                     :Carbonate flag
COAL_FLAG.UNITLESS                                     :Coal flag
KLOGH.MD                                       :Calculated Horizontal Permeability From Logs
PHIF.V/V                                      :Final Porosity
SAND_FLAG.UNITLESS                                     :Sand Flag
SW  .V/V                                      :Water Saturation
VSH .V/V                                      :Volume of Shale
#
~ASCII data
# ...
8793.500 0.2122 0 0 995.914 0.271591 1 0.7812 0.1305 
8794.000 0.2089 0 0 1638.67 0.272666 1 0.7661 0.1074 
8794.500 0.2078 0 0 2403.01 0.281241 1 0.7389 0.0966 
8795.000 0.2038 0 0 2246.22 0.282386 1 0.7216 0.1008 
8795.500 0.1982 0 0 1260.43 0.274268 1 0.7228 0.1215 
8796.000 0.1961 0 0 853.916 0.26093 1 0.7514 0.1284 
8796.500 0.193 0 0 521.563 0.250431 1 0.7708 0.1429 
8797.000 0.1881 0 0 585.584 0.24788 1 0.759 0.1351 
8797.500 0.1892 0 0 733.479 0.246923 1 0.7663 0.1233 
8798.000 0.1887 0 0 979.625 0.245086 1 0.7699 0.1077 
8798.500 0.1881 0 0 982.151 0.246655 1 0.7626 0.109 
8799.000 0.1891 0 0 1082.33 0.249856 1 0.757 0.1072 
8799.500 0.1927 0 0 1258.44 0.255546 1 0.7541 0.1049 
8800.000 0.1962 0 0 1191.38 0.25731 1 0.7624 0.1092 
8800.500 0.196 0 0 1189.21 0.260053 1 0.7538 0.1117 
8801.000 0.204 0 0 802.548 0.258727 1 0.7886 0.1295 
8801.500 0.198 0 0 990.711 0.266074 1 0.7443 0.1258 
8802.000 0.1985 0 0 957.829 0.264233 1 0.7513 0.1258 
8802.500 0.1989 0 0 1269.01 0.264079 1 0.7533 0.1121 
8803.000 0.2013 0 0 1108.22 0.261067 1 0.7712 0.116 
8803.500 0.2018 0 0 1055.88 0.254444 1 0.7932 0.1124 
8804.000 0.2024 0 0 1569.93 0.257709 1 0.7852 0.0962 
8804.500 0.1961 0 0 2038.06 0.254161 1 0.7715 0.0805 
8805.000 0.2024 0 0 2384.66 0.260944 1 0.7758 0.0789 
8805.500 0.1974 0 0 2439.96 0.258396 1 0.7639 0.0755 
8806.000 0.2 0 0 2754.1 0.26208 1 0.7632 0.073 
8806.500 0.1936 0 0 2415.7 0.262122 1 0.7387 0.0793 
8807.000 0.2004 0 0 2200.02 0.268867 1 0.7453 0.0898 
8807.500 0.197 0 0 1552.43 0.266879 1 0.7382 0.1049 
8808.000 0.1986 0 0 1669.38 0.266875 1 0.7443 0.1014 
8808.500 0.2003 0 0 1250.87 0.265792 1 0.7534 0.1143 
8809.000 0.2041 0 0 1630.21 0.270383 1 0.755 0.1056 
8809.500 0.2025 0 0 2341.23 0.274109 1 0.7389 0.0915 
8810.000 0.2033 0 0 1936.13 0.273435 1 0.7434 0.1001 
8810.500 0.2028 0 0 1605.09 0.268331 1 0.7556 0.1046 
8811.000 0.2065 0 0 983.905 0.266229 1 0.7755 0.1263 
8811.500 0.2095 0 0 1011.6 0.269447 1 0.7774 0.1278 
8812.000 0.2113 0 0 792.547 0.268651 1 0.7865 0.1389 
8812.500 0.2082 0 0 734.636 0.266657 1 0.7806 0.1408 
8813.000 0.2037 0 0 1185.46 0.261846 1 0.7779 0.1134 
8813.500 0.2007 0 0 1315.48 0.263618 1 0.7612 0.11 
8814.000 0.1924 0 0 1872.28 0.263922 1 0.7291 0.0932 
8814.500 0.1875 0 0 1809.21 0.264747 1 0.7081 0.0956 
8815.000 0.1829 0 0 1845.28 0.265168 1 0.6897 0.095 
8815.500 0.1793 0 0 1427.64 0.261647 1 0.6853 0.1043 
8816.000 0.1771 0 0 1251.35 0.257937 1 0.6865 0.1073 
8816.500 0.1768 0 0 1109.41 0.255448 1 0.6919 0.1109 
8817.000 0.1779 0 0 1042.07 0.257339 1 0.6914 0.1156 
8817.500 0.1821 0 0 880.826 0.258017 1 0.7059 0.1244 
8818.000 0.1859 0 0 846.898 0.255828 1 0.7267 0.1243 
8818.500 0.1835 0 0 953.665 0.249628 1 0.7349 0.1131 
8819.000 0.1857 0 0 1025.31 0.247335 1 0.751 0.1075 
8819.500 0.1886 0 0 1764.88 0.245914 1 0.7668 0.0801 
8820.000 0.1924 0 0 1942.97 0.253154 1 0.7602 0.0819 
8820.500 0.1921 0 0 1400.25 0.254934 1 0.7536 0.0993 
8821.000 0.1967 0 0 831.517 0.261732 1 0.7515 0.1304 
8821.500 0.1958 0 0 599.651 0.258536 1 0.7574 0.1434 
8822.000 0.1943 0 0 1132.14 0.26224 1 0.741 0.116 
8822.500 0.1969 0 0 1075.64 0.260425 1 0.7561 0.1169 
8823.000 0.2003 0 0 1575.6 0.267123 1 0.7499 0.1044 
8823.500 0.2038 0 0 1078.86 0.272023 1 0.7492 0.127 
8824.000 0.2068 0 0 1090.7 0.274185 1 0.7544 0.1284 
8824.500 0.2071 0 0 767.924 0.273505 1 0.757 0.1447 
8825.000 0.2047 0 0 552.954 0.265664 1 0.7705 0.1536 
8825.500 0.1934 0 0 351.299 0.256944 1 0.7528 0.1678 
8826.000 0.188 0 0 209.157 0.239646 1 0.7846 0.1774 
8826.500 0.1748 0 0 128.998 0.222436 1 0.7859 0.1854 
8827.000 0.1662 0 0 78.0567 0.215848 1 0.7699 0.2038 
8827.500 0.1657 0 0 34.8776 0.216114 1 0.7665 0.2429 
8828.000 0.1657 0 0 32.3827 0.223549 1 0.7411 0.2531 
8828.500 0.168 0 0 36.5924 0.230635 1 0.7284 0.2535 
8829.000 0.1746 0 0 65.8293 0.240318 1 0.7266 0.2338 
8829.500 0.1836 0 0 71.341 0.245027 1 0.7493 0.2341 
8830.000 0.1849 0 0 77.9322 0.245414 1 0.7534 0.2302 
8830.500 0.1887 0 0 104.437 0.248498 1 0.7592 0.2188 
8831.000 0.1936 0 0 116.895 0.254377 1 0.7612 0.2186 
8831.500 0.1956 0 0 178.577 0.259672 1 0.7533 0.2028 
8832.000 0.2002 0 0 128.336 0.264171 1 0.758 0.2228 
8832.500 0.2012 0 0 170.504 0.267009 1 0.7537 0.2116 
8833.000 0.1979 0 0 168.119 0.270982 1 0.7301 0.2158 
8833.500 0.1996 0 0 324.999 0.273916 1 0.7288 0.1866 
8834.000 0.2039 0 0 605.477 0.280035 1 0.7282 0.162 
8834.500 0.2041 0 0 850.91 0.282985 1 0.7213 0.1482 
8835.000 0.2004 0 0 780.233 0.276002 1 0.7262 0.1462 
8835.500 0.2033 0 0 116.522 0.251917 1 0.8069 0.2165 
8836.000 0.1862 0 0 4.7039 0.215472 1 0.8642 0.339 
8836.500 0.1663 0 0 0.1909 0.174922 1 0.9507 0.4576 
8837.000 0.1561 0 0 0.0235 0.156056 0 1 0.542 
8837.500 0.1537 0 0 0.0128 0.153694 0 1 0.5693 
8838.000 0.1639 0 0 0.0165 0.163882 0 1 0.5658 
8838.500 0.1649 0 0 0.0132 0.175007 0 0.942 0.5865 
8839.000 0.1675 0 0 0.0094 0.190821 0 0.8779 0.6172 
8839.500 0.1839 0 0 0.0029 0.206242 0 0.8915 0.687 
8840.000 0.1871 0 0 0.0018 0.21421 0 0.8734 0.7166 
8840.500 0.1884 0 0 0.0029 0.220276 0 0.8553 0.6999 
8841.000 0.1898 0 0 0.0057 0.226474 0 0.8381 0.6731 
8841.500 0.1814 0 0 0.0139 0.229502 0 0.7906 0.6325 
8842.000 0.1784 0 0 0.0223 0.236618 0 0.7538 0.6161 
8842.500 0.186 0 0 0.0393 0.23995 0 0.7751 0.5917 
8843.000 0.1842 0 0 0.1098 0.261111 0 0.7056 0.5609 
8843.500 0.1921 0 0 0.3898 0.283359 0 0.678 0.5196 
8844.000 0.2025 0 0 1.4092 0.297424 1 0.6808 0.47 
8844.500 0.1987 0 0 3.095 0.298531 1 0.6657 0.4331 
8845.000 0.1956 0 0 4.5128 0.291089 1 0.672 0.4083 
8845.500 0.2001 0 0 4.4388 0.292423 1 0.6844 0.4102 
8846.000 0.2218 0 0 8.1105 0.293406 1 0.7559 0.382 
8846.500 0.1993 0 0 10.6197 0.281093 1 0.7091 0.3581 
8847.000 0.1874 0 0 10.546 0.267828 1 0.6996 0.3466 
8847.500 0.1898 0 0 4.3554 0.261709 1 0.7253 0.3838 
8848.000 0.188 0 0 1.7812 0.277923 1 0.6766 0.4414 
8848.500 0.1979 0 0 0.7602 0.287345 1 0.6888 0.4909 
8849.000 0.2008 0 0 0.8782 0.300324 1 0.6685 0.4954 
8849.500 0.1995 0 0 2.3141 0.296294 1 0.6734 0.4451 
8850.000 0.199 0 0 14.2029 0.294942 1 0.6746 0.3564 
8850.500 0.1988 0 0 42.5422 0.282818 1 0.7028 0.2926 
8851.000 0.2056 0 0 112.753 0.283062 1 0.7263 0.2458 
8851.500 0.2143 0 0 186.382 0.283483 1 0.756 0.2219 
8852.000 0.2164 0 0 246.415 0.284491 1 0.7606 0.2094 
8852.500 0.208 0 0 273.498 0.281736 1 0.7383 0.2019 
8853.000 0.1995 0 0 281.879 0.27451 1 0.7268 0.194 
8853.500 0.1969 0 0 267.701 0.271295 1 0.7258 0.1936 
8854.000 0.1974 0 0 270.648 0.270133 1 0.7308 0.1921 
8854.500 0.202 0 0 242.871 0.27097 1 0.7454 0.198 
8855.000 0.1975 0 0 352.782 0.270928 1 0.7291 0.18 
8855.500 0.1839 0 0 136.771 0.255526 1 0.7198 0.212 
8856.000 0.1702 0 0 17.7308 0.232183 1 0.733 0.2899 
8856.500 0.1528 0 0 0.3513 0.192733 1 0.7929 0.444 
8857.000 0.145 0 0 0.0109 0.166286 0 0.8721 0.5881 
8857.500 0.1376 0 0 0.001 0.142354 0 0.9669 0.6841 
8858.000 0.1334 0 0 0.001 0.138975 0 0.9599 0.7187 
8858.500 0.135 0 0 0.001 0.138645 0 0.9739 0.7328 
8859.000 0.1359 0 0 0.001 0.143959 0 0.9439 0.7484 
8859.500 0.1411 0 0 0.001 0.153603 0 0.9188 0.7569 
8860.000 0.1443 0 0 0.001 0.157838 0 0.9141 0.7378 
8860.500 0.1426 0 0 0.0022 0.150803 0 0.9456 0.6507 
8861.000 0.129 0 0 0.0078 0.128956 0 1 0.5708 
8861.500 0.1076 0 0 0.0148 0.114512 0 0.9395 0.5273 
8862.000 0.0968 0 0 0.0079 0.127084 0 0.7613 0.5688 
8862.500 0.1489 0 0 0.005 0.150243 0 0.9909 0.6119 
8863.000 0.1616 0 0 0.0061 0.172255 0 0.9383 0.6215 
8863.500 0.1702 0 0 0.0107 0.176561 0 0.9639 0.5981 
8864.000 0.1693 0 0 0.0221 0.176492 0 0.9595 0.5632 
8864.500 0.1587 0 0 0.0289 0.17077 0 0.9294 0.5451 
8865.000 0.1558 0 0 0.0294 0.169442 0 0.9193 0.5429 
8865.500 0.1548 0 0 0.0176 0.161842 0 0.9562 0.5611 
8866.000 0.1484 0 0 0.0149 0.148357 0 1 0.5572 
8866.500 0.1226 0 0 0.0191 0.122604 0 1 0.5223 
8867.000 0.1151 0 0 0.048 0.115099 1 1 0.4711 
8867.500 0.0857 0 0 0.0588 0.118343 1 0.7245 0.4641 
8868.000 0.1124 0 0 0.041 0.138553 1 0.8114 0.4995 
8868.500 0.1261 0 0 0.0425 0.143467 0 0.8791 0.5021 
8869.000 0.1163 0 0 0.1 0.146929 1 0.7913 0.4639 
