~Version Information
VERS.                2.00 :CWLS Log ASCII Standard
WRAP.                  NO :One line per depth step
#
~Well Information
#MNEM.UNIT               DATA                    DESCRIPTION OF MNEMONIC
#--- ---- ----------------------------------- -------------------------------
STRT.F                               8494.000 :START Depth
STOP.F                              13418.500 :STOP Depth
STEP.F                                  0.500 :STEP Length
NULL.                                -999.250 :NULL Value
DATE.                              2009-09-07 :LOG DATE
#
~Curve Information
#--- ---- ----------------------------------- -------------------------------
DEPTH.F                                        :
BVW .V/V                                      :Bound Volume Water
CARB_FLAG.UNITLESS                                     :Carbonate flag
COAL_FLAG.UNITLESS                                     :Coal flag
KLOGH.MD                                       :Calculated Horizontal Permeability From Logs
PHIF.V/V                                      :Final Porosity
SAND_FLAG.UNITLESS                                     :Sand Flag
SW  .V/V                                      :Water Saturation
VSH .V/V                                      :Volume of Shale
#
~ASCII data
# ...
12706.501 -999.25 1 0 -999.25 -999.25 0 -999.25 1 
12707.001 -999.25 1 0 -999.25 -999.25 0 -999.25 1 
12707.501 -999.25 1 0 -999.25 -999.25 0 -999.25 1 
12708.001 -999.25 1 0 -999.25 -999.25 0 -999.25 1 
12708.501 -999.25 1 0 -999.25 -999.25 0 -999.25 1 
12709.001 -999.25 1 0 -999.25 -999.25 0 -999.25 1 
12709.501 -999.25 1 0 -999.25 -999.25 0 -999.25 1 
12710.001 -999.25 1 0 -999.25 -999.25 0 -999.25 1 
12710.501 -999.25 1 0 -999.25 -999.25 0 -999.25 1 
12711.001 -999.25 1 0 -999.25 -999.25 0 -999.25 1 
12711.501 -999.25 1 0 -999.25 -999.25 0 -999.25 1 
12712.001 -999.25 1 0 -999.25 -999.25 0 -999.25 1 
12712.501 -999.25 1 0 -999.25 -999.25 0 -999.25 1 
12713.001 -999.25 1 0 -999.25 -999.25 0 -999.25 1 
12713.501 -999.25 1 0 -999.25 -999.25 0 -999.25 1 
12714.001 -999.25 0 0 -999.25 -999.25 0 -999.25 1 
12714.501 -999.25 0 0 -999.25 -999.25 0 -999.25 1 
12715.001 0.0805 0 0 0.001 0.080482 0 1 1 
12715.501 0.1111 0 0 0.001 0.111084 0 1 1 
12716.001 0.1352 0 0 0.001 0.137169 0 0.9854 1 
12716.501 0.1304 0 0 0.001 0.164277 0 0.794 1 
12717.001 0.1007 0 0 0.001 0.173434 0 0.5807 1 
12717.501 0.0915 0 0 0.001 0.167289 0 0.5469 1 
12718.001 0.0925 0 0 0.001 0.144277 0 0.6408 1 
12718.501 0.0968 0 0 0.001 0.126566 0 0.7645 1 
12719.001 0.1127 0 0 0.001 0.112711 0 1 1 
12719.501 0.1029 0 0 0.001 0.102891 0 1 1 
12720.001 0.102 0 0 0.001 0.102048 0 1 1 
12720.501 0.107 0 0 0.001 0.107048 0 1 1 
12721.001 0.1126 0 0 0.001 0.11259 0 1 1 
12721.501 0.1034 0 0 0.001 0.103434 0 1 1 
12722.001 0.0936 0 0 0.001 0.093554 0 1 1 
12722.501 0.0808 0 0 0.001 0.080783 0 1 1 
12723.001 0.0779 0 0 0.001 0.077892 0 1 1 
12723.501 0.0736 0 0 0.001 0.073554 0 1 0.9293 
12724.001 0.075 0 0 0.001 0.075 0 1 0.8614 
12724.501 0.0757 0 0 0.001 0.075663 0 1 0.802 
12725.001 0.0786 0 0 0.001 0.078614 0 1 0.7677 
12725.501 0.0785 0 0 0.001 0.078494 0 1 0.746 
12726.001 0.0772 0 0 0.001 0.077169 0 1 0.7372 
12726.501 0.0751 0 0 0.001 0.07512 0 1 0.7403 
12727.001 0.0751 0 0 0.001 0.07506 0 1 0.7393 
12727.501 0.077 0 0 0.001 0.077048 0 1 0.7378 
12728.001 0.0763 0 0 0.001 0.076265 0 1 0.7423 
12728.501 0.0777 0 0 0.001 0.077651 0 1 0.756 
12729.001 0.0742 0 0 0.001 0.074157 0 1 0.7717 
12729.501 0.0754 0 0 0.001 0.075422 0 1 0.7777 
12730.001 0.0623 0 0 0.001 0.062349 0 1 0.7798 
12730.501 0.0533 0 0 0.001 0.053253 0 1 0.7836 
12731.001 0.0536 0 0 0.001 0.053614 0 1 0.7792 
12731.501 0.0643 0 0 0.001 0.064277 0 1 0.7793 
12732.001 0.0815 0 0 0.001 0.081506 0 1 0.7711 
12732.501 0.0876 0 0 0.001 0.08759 0 1 0.7776 
12733.001 0.0883 0 0 0.001 0.088313 0 1 0.756 
12733.501 0.0804 0 0 0.001 0.080422 0 1 0.7408 
12734.001 0.073 0 0 0.001 0.072952 0 1 0.7147 
12734.501 0.072 0 0 0.001 0.071988 0 1 0.7117 
12735.001 0.0699 0 0 0.001 0.06988 0 1 0.709 
12735.501 0.0684 0 0 0.001 0.068374 0 1 0.7065 
12736.001 0.0666 0 0 0.001 0.066566 0 1 0.7005 
12736.501 0.0664 0 0 0.001 0.066446 0 1 0.6966 
12737.001 0.0654 0 0 0.001 0.065422 0 1 0.6933 
12737.501 0.0695 0 0 0.001 0.069518 0 1 0.7044 
12738.001 0.0742 0 0 0.001 0.074157 0 1 0.7151 
12738.501 0.0748 0 0 0.001 0.074819 0 1 0.7266 
12739.001 0.0738 0 0 0.001 0.073795 0 1 0.7315 
12739.501 0.0722 0 0 0.001 0.072169 0 1 0.7347 
12740.001 0.074 0 0 0.001 0.074036 0 1 0.7413 
12740.501 0.0766 0 0 0.001 0.076566 0 1 0.7411 
12741.001 0.0767 0 0 0.001 0.076747 0 1 0.7316 
12741.501 0.0761 0 0 0.001 0.076145 0 1 0.7248 
12742.001 0.0762 0 0 0.001 0.076205 0 1 0.717 
12742.501 0.0769 0 0 0.001 0.076868 0 1 0.7195 
12743.001 0.0837 0 0 0.001 0.083675 0 1 0.7132 
12743.501 0.0815 0 0 0.001 0.081506 0 1 0.7086 
12744.001 0.0836 0 0 0.001 0.083614 0 1 0.7094 
12744.501 0.0811 0 0 0.001 0.081084 0 1 0.7232 
12745.001 0.0889 0 0 0.001 0.088855 0 1 0.7354 
12745.501 0.0917 0 0 0.001 0.091687 0 1 0.7438 
12746.001 0.0949 0 0 0.001 0.09494 0 1 0.7482 
12746.501 0.0904 0 0 0.001 0.090361 0 1 0.7559 
12747.001 0.0893 0 0 0.001 0.089277 0 1 0.7626 
12747.501 0.0881 0 0 0.001 0.088133 0 1 0.7555 
12748.001 0.0908 0 0 0.001 0.090843 0 1 0.7552 
12748.501 0.0858 0 0 0.001 0.085843 0 1 0.7444 
12749.001 0.0799 0 0 0.001 0.07988 0 1 0.7426 
12749.501 0.0728 0 0 0.001 0.072831 0 1 0.7224 
12750.001 0.0723 0 0 0.001 0.072349 0 1 0.7162 
12750.501 0.0768 0 0 0.001 0.076807 0 1 0.7091 
12751.001 0.0813 0 0 0.001 0.081325 0 1 0.7208 
12751.501 0.0899 0 0 0.001 0.08988 0 1 0.7259 
12752.001 0.0952 0 0 0.001 0.095241 0 1 0.7383 
12752.501 0.0993 0 0 0.001 0.099277 0 1 0.7375 
12753.001 0.0972 0 0 0.001 0.097229 0 1 0.7409 
12753.501 0.0922 0 0 0.001 0.092229 0 1 0.743 
12754.001 0.089 0 0 0.001 0.089036 0 1 0.7518 
12754.501 0.0848 0 0 0.001 0.084819 0 1 0.7511 
12755.001 0.0852 0 0 0.001 0.085181 0 1 0.7387 
12755.501 0.0863 0 0 0.001 0.086265 0 1 0.7264 
12756.001 0.0916 0 0 0.001 0.091627 0 1 0.7245 
12756.501 0.0931 0 0 0.001 0.093072 0 1 0.7332 
12757.001 0.091 0 0 0.001 0.091024 0 1 0.7334 
12757.501 0.0908 0 0 0.001 0.090783 0 1 0.7295 
12758.001 0.0924 0 0 0.001 0.09241 0 1 0.722 
12758.501 0.0918 0 0 0.001 0.091807 0 1 0.7193 
12759.001 0.0882 0 0 0.001 0.088193 0 1 0.7096 
12759.501 0.0902 0 0 0.001 0.090241 0 1 0.7087 
12760.001 0.0961 0 0 0.001 0.096084 0 1 0.7134 
12760.501 0.1024 0 0 0.001 0.10241 0 1 0.7233 
12761.001 0.0993 0 0 0.001 0.099277 0 1 0.7327 
12761.501 0.0979 0 0 0.001 0.097892 0 1 0.7295 
12762.001 0.078 0 0 0.001 0.077952 0 1 0.7292 
12762.501 0.0726 0 0 0.001 0.07259 0 1 0.7042 
12763.001 0.0603 0 0 0.001 0.060301 0 1 0.6937 
12763.501 0.0745 0 0 0.001 0.074458 0 1 0.6803 
12764.001 0.079 0 0 0.001 0.079036 0 1 0.6889 
12764.501 0.0896 0 0 0.001 0.089639 0 1 0.6967 
12765.001 0.0905 0 0 0.001 0.090482 0 1 0.7099 
12765.501 0.0853 0 0 0.001 0.085301 0 1 0.7127 
12766.001 0.0813 0 0 0.001 0.081325 0 1 0.7068 
12766.501 0.0796 0 0 0.001 0.079578 0 1 0.7017 
12767.001 0.0828 0 0 0.001 0.082771 0 1 0.7002 
12767.501 0.0801 0 0 0.001 0.08006 0 1 0.7087 
12768.001 0.0761 0 0 0.001 0.076145 0 1 0.7074 
12768.501 0.0822 0 0 0.001 0.082169 0 1 0.7021 
12769.001 0.091 0 0 0.001 0.090964 0 1 0.7104 
12769.501 0.0882 1 0 0.001 0.088193 0 1 0.7054 
12770.001 0.0849 0 0 0.001 0.08488 0 1 0.701 
12770.501 0.0657 0 0 0.001 0.065723 0 1 0.6832 
12771.001 0.086 0 0 0.001 0.086024 0 1 0.692 
12771.501 0.0922 0 0 0.001 0.092229 0 1 0.7095 
12772.001 0.1133 0 0 0.001 0.113253 0 1 0.7197 
12772.501 0.1149 0 0 0.001 0.114879 0 1 0.7125 
12773.001 0.1205 0 0 0.001 0.120542 0 1 0.7176 
12773.501 0.1217 0 0 0.001 0.121747 0 1 0.7254 
12774.001 0.1222 0 0 0.001 0.123735 0 0.9875 0.7536 
12774.501 0.1211 0 0 0.001 0.121084 0 1 0.763 
12775.001 0.1222 0 0 0.001 0.122229 0 1 0.7785 
12775.501 0.121 0 0 0.001 0.121024 0 1 0.767 
12776.001 0.1236 0 0 0.001 0.123615 0 1 0.772 
12776.501 0.1243 0 0 0.001 0.124277 0 1 0.7726 
12777.001 0.1215 0 0 0.001 0.121506 0 1 0.7948 
12777.501 0.1237 0 0 0.001 0.123675 0 1 0.7977 
12778.001 0.1231 0 0 0.001 0.123072 0 1 0.7931 
12778.501 0.1222 0 0 0.001 0.122169 0 1 0.7682 
12779.001 0.1135 0 0 0.001 0.113494 0 1 0.7494 
12779.501 0.1061 0 0 0.001 0.106084 0 1 0.7368 
12780.001 0.1043 0 0 0.001 0.104277 0 1 0.7372 
12780.501 0.1027 0 0 0.001 0.102711 0 1 0.7367 
12781.001 0.106 0 0 0.001 0.106024 0 1 0.7357 
12781.501 0.1117 0 0 0.001 0.111747 0 1 0.7433 
12782.001 0.1193 0 0 0.001 0.119337 0 1 0.7524 
12782.501 0.1128 0 0 0.001 0.118735 0 0.9498 0.7447 
12783.001 0.1132 0 0 0.001 0.113675 0 0.9954 0.7263 
12783.501 0.1014 0 0 0.001 0.101446 0 1 0.6957 
12784.001 0.1014 0 0 0.001 0.101386 0 1 0.6719 
12784.501 0.1076 0 0 0.001 0.10759 0 1 0.6651 
12785.001 0.116 0 0 0.001 0.121747 0 0.9528 0.6748 
12785.501 0.1249 0 0 0.001 0.128133 0 0.9746 0.7027 
12786.001 0.1263 0 0 0.001 0.126265 0 1 0.7161 
12786.501 0.1237 0 0 0.001 0.12494 0 0.9897 0.7284 
12787.001 0.1248 0 0 0.001 0.124759 0 1 0.7301 
12787.501 0.124 0 0 0.001 0.124036 0 1 0.7304 
12788.001 0.1249 0 0 0.001 0.12494 0 1 0.7323 
12788.501 0.1226 0 0 0.001 0.123434 0 0.9934 0.7307 
12789.001 0.1217 0 0 0.001 0.129337 0 0.9413 0.7338 
12789.501 0.1281 0 0 0.001 0.128133 0 1 0.7268 
