~Version Information
VERS.                2.00 :CWLS Log ASCII Standard
WRAP.                 YES :Multiple lines per depth step
#
~Well Information
#MNEM.UNIT               DATA                    DESCRIPTION OF MNEMONIC
#--- ---- ----------------------------------- -------------------------------
STRT.F                                  0.000 :START Depth
STOP.F                              13418.500 :STOP Depth
STEP.F                                  0.500 :STEP Length
NULL.                                -999.250 :NULL Value
DATE.                              2009-09-07 :LOG DATE
#
~Curve Information
#--- ---- ----------------------------------- -------------------------------
DEPTH.F                                        :
CALI.IN                                       :Ultrasonic Caliper Average Diameter
DRHB.G/CC                                     :Bulk Density Correction  Bottom
DRHO.G/CC                                     :Bulk Density Correction
DRHU.G/CC                                     :Bulk Density Correction  Up
DT  .US/F                                     :Delta-T Compressional
GR  .GAPI                                     :Gamma Ray
NPHI.V/V                                      :Neutron Porosity
PEF .B/E                                      :Photoelectric Factor Bottom
RD  .OHMM                                     :Deep Resistivity
RHOB.G/CC                                     :Bulk Density
ROBB.G/CC                                     :Bulk Density  Bottom
ROBU.G/CC                                     :Bulk Density  Up
RS  .OHMM                                     :Shallow Resistivity
RT  .OHMM                                     :True Resistivity
#
~ASCII data
# ...
8055.500 
  8.5365 -999.25 -1.38083 -999.25 -999.25 61.0001 0.614719 74.4655 0.7116 1.7676 
  -999.25 -999.25 0.6969 0.6266 
8056.000 
  8.5331 -999.25 -1.46602 -999.25 -999.25 58.3633 0.625379 76.6851 0.8273 1.6864 
  -999.25 -999.25 0.6796 0.5977 
8056.500 
  8.4806 -999.25 -1.368 -999.25 -999.25 54.9954 0.60864 72.8189 0.8716 1.803 
  -999.25 -999.25 0.6786 0.6804 
8057.000 
  8.4066 -999.25 -1.27316 -999.25 -999.25 56.7153 0.590123 69.9254 0.8349 1.8989 
  -999.25 -999.25 0.673 0.6374 
8057.500 
  8.431 -999.25 -1.23619 -999.25 -999.25 60.1731 0.600204 68.2901 0.7842 1.9293 
  -999.25 -999.25 0.6594 0.6326 
8058.000 
  8.4919 -999.25 -1.25707 -999.25 -999.25 63.3552 0.547627 64.1172 0.7625 1.9973 
  -999.25 -999.25 0.6366 0.6127 
8058.500 
  8.4765 -999.25 -1.62781 -999.25 -999.25 63.505 0.566485 78.3213 0.9022 1.7768 
  -999.25 -999.25 0.6249 0.5959 
8059.000 
  8.5327 -999.25 -1.8603 -999.25 -999.25 63.8286 0.562297 88.2954 0.9261 1.7116 
  -999.25 -999.25 0.5809 0.5983 
8059.500 
  8.5201 -999.25 -1.87836 -999.25 -999.25 63.1574 0.688755 99.3951 0.8541 1.6023 
  -999.25 -999.25 0.5449 0.5189 
8060.000 
  8.5386 -999.25 -1.50804 -999.25 -999.25 59.6277 0.722945 76.5518 0.9475 1.8042 
  -999.25 -999.25 0.4984 0.5414 
8060.500 
  8.4411 -999.25 -1.39362 -999.25 -999.25 54.522 0.656804 72.2119 0.8168 1.8075 
  -999.25 -999.25 0.5334 0.6334 
8061.000 
  8.4675 -999.25 -1.46236 -999.25 -999.25 51.3818 0.704286 75.2967 0.8196 1.6617 
  -999.25 -999.25 0.6358 0.624 
8061.500 
  8.4435 -999.25 -1.47905 -999.25 -999.25 52.5324 0.691112 77.4422 0.9728 1.6358 
  -999.25 -999.25 0.6876 0.6797 
8062.000 
  8.4697 -999.25 -1.48161 -999.25 -999.25 56.17 0.648737 77.0633 0.9201 1.6323 
  -999.25 -999.25 0.6501 0.7085 
8062.500 
  8.4348 -999.25 -1.4094 -999.25 -999.25 59.2682 0.606524 73.1399 0.8881 1.7259 
  -999.25 -999.25 0.6409 0.7009 
8063.000 
  8.4432 -999.25 -1.43302 -999.25 -999.25 61.102 0.680601 73.2721 0.7955 1.7116 
  -999.25 -999.25 0.6488 0.741 
8063.500 
  8.5213 -999.25 -1.36808 -999.25 -999.25 62.9777 0.623629 69.4727 0.7531 1.7771 
  -999.25 -999.25 0.6594 0.756 
8064.000 
  8.5044 -999.25 -1.30334 -999.25 -999.25 64.374 0.610475 67.1034 0.7472 1.8183 
  -999.25 -999.25 0.6744 0.689 
8064.500 
  8.5454 -999.25 -1.29386 -999.25 -999.25 65.2369 0.583622 66.6683 0.7416 1.8182 
  -999.25 -999.25 0.6988 0.6885 
8065.000 
  8.4142 -999.25 -1.19701 -999.25 -999.25 65.0511 0.547993 63.3712 0.7372 1.9372 
  -999.25 -999.25 0.6971 0.6727 
8065.500 
  8.4482 -999.25 -1.25606 -999.25 -999.25 66.3995 0.562653 69.1652 0.8272 1.885 
  -999.25 -999.25 0.697 0.6309 
8066.000 
  8.5204 -999.25 -1.1318 -999.25 -999.25 67.0826 0.544672 62.3502 0.874 2.0322 
  -999.25 -999.25 0.6831 0.6694 
8066.500 
  8.4327 -999.25 -1.26269 -999.25 -999.25 66.8789 0.659176 67.8657 0.6964 1.8818 
  -999.25 -999.25 0.7347 0.6701 
8067.000 
  8.3536 -999.25 -1.32393 -999.25 -999.25 61.9349 0.611846 67.7216 0.7529 1.7984 
  -999.25 -999.25 0.7416 0.6602 
8067.500 
  8.4392 -999.25 -1.48324 -999.25 -999.25 57.2846 0.635862 75.9333 0.6712 1.6456 
  -999.25 -999.25 0.7648 0.6056 
8068.000 
  8.5155 -999.25 -1.4982 -999.25 -999.25 53.4194 0.636284 76.2927 0.8333 1.6405 
  -999.25 -999.25 0.7024 0.5799 
8068.500 
  8.4593 -999.25 -1.49819 -999.25 -999.25 56.0981 0.65334 77.019 0.8636 1.6465 
  -999.25 -999.25 0.7096 0.6146 
8069.000 
  8.5819 -999.25 -1.51907 -999.25 -999.25 59.6697 0.675045 80.9101 0.8496 1.6245 
  -999.25 -999.25 0.731 0.6445 
8069.500 
  8.4375 -999.25 -1.56783 -999.25 -999.25 61.8031 0.69071 83.2996 0.8351 1.5688 
  -999.25 -999.25 0.7381 0.6939 
8070.000 
  8.582 -999.25 -1.51745 -999.25 -999.25 61.0241 0.680327 80.4974 0.8331 1.6185 
  -999.25 -999.25 0.7155 0.6479 
8070.500 
  8.5871 -999.25 -1.52441 -999.25 -999.25 59.9394 0.660735 80.2616 0.8519 1.6016 
  -999.25 -999.25 0.6828 0.6233 
8071.000 
  8.4255 -999.25 -1.47099 -999.25 -999.25 59.8854 0.655058 78.6907 0.6954 1.6648 
  -999.25 -999.25 0.7035 0.6539 
8071.500 
  8.4476 -999.25 -1.50676 -999.25 -999.25 62.3604 0.729368 80.5022 0.6903 1.6277 
  -999.25 -999.25 0.7029 0.663 
8072.000 
  8.4447 -999.25 -1.48102 -999.25 -999.25 64.4159 0.644371 78.9368 0.7983 1.6667 
  -999.25 -999.25 0.6368 0.6157 
8072.500 
  8.477 -999.25 -1.50325 -999.25 -999.25 66.9148 0.672334 78.2677 0.8191 1.6376 
  -999.25 -999.25 0.6157 0.6256 
8073.000 
  8.4978 -999.25 -1.4873 -999.25 -999.25 69.4677 0.637912 77.6105 0.8775 1.655 
  -999.25 -999.25 0.5973 0.6056 
8073.500 
  8.4653 -999.25 -1.45205 -999.25 -999.25 74.5615 0.671942 74.9927 0.8251 1.6747 
  -999.25 -999.25 0.5864 0.593 
8074.000 
  8.4533 -999.25 -1.35274 -999.25 -999.25 76.2874 0.590222 70.0279 0.7847 1.7689 
  -999.25 -999.25 0.5887 0.5717 
8074.500 
  8.4961 -999.25 -1.33435 -999.25 -999.25 72.3981 0.613266 69.8981 0.8839 1.7831 
  -999.25 -999.25 0.5807 0.5683 
8075.000 
  8.4262 -999.25 -1.3472 -999.25 -999.25 64.8534 0.603246 70.0096 0.9429 1.783 
  -999.25 -999.25 0.6078 0.5746 
8075.500 
  8.5075 -999.25 -1.46675 -999.25 -999.25 59.5618 0.641387 77.4264 1.2439 1.6503 
  -999.25 -999.25 0.6306 0.703 
8076.000 
  8.4814 -999.25 -1.4178 -999.25 -999.25 56.5176 0.659184 73.9848 0.5847 1.6833 
  -999.25 -999.25 0.8061 0.785 
8076.500 
  8.5214 -999.25 -1.45843 -999.25 -999.25 56.5415 0.665804 78.9734 0.7597 1.6123 
  -999.25 -999.25 0.7273 0.6483 
8077.000 
  8.5388 -999.25 -1.36725 -999.25 -999.25 57.3206 0.638531 72.2063 0.7361 1.7022 
  -999.25 -999.25 0.6855 0.6415 
8077.500 
  8.527 -999.25 -1.35944 -999.25 -999.25 56.6854 0.587085 70.9766 0.712 1.7226 
  -999.25 -999.25 0.6433 0.6071 
8078.000 
  8.5547 -999.25 -1.26758 -999.25 -999.25 57.5423 0.566719 65.1194 0.7283 1.8329 
  -999.25 -999.25 0.6159 0.5888 
8078.500 
  8.5389 -999.25 -1.26453 -999.25 -999.25 60.9282 0.569529 66.0934 0.7062 1.8472 
  -999.25 -999.25 0.6273 0.6582 
8079.000 
  8.4818 -999.25 -1.31884 -999.25 -999.25 70.7621 0.651781 70.7233 0.971 1.814 
  -999.25 -999.25 0.6004 0.5792 
8079.500 
  8.4329 -999.25 -1.42008 -999.25 -999.25 84.9348 0.66454 75.7769 0.8997 1.735 
  -999.25 -999.25 0.594 0.5599 
8080.000 
  8.4902 -999.25 -1.531 -999.25 -999.25 95.2242 0.751116 83.9132 0.8329 1.6273 
  -999.25 -999.25 0.592 0.607 
8080.500 
  8.4747 -999.25 -1.43455 -999.25 -999.25 93.0988 0.639856 77.1902 0.7775 1.7215 
  -999.25 -999.25 0.6534 0.6552 
8081.000 
  8.5316 -999.25 -1.2814 -999.25 -999.25 76.5245 0.599553 70.4207 0.8842 1.8653 
  -999.25 -999.25 0.6537 0.6207 
8081.500 
  8.6041 -999.25 -1.1859 -999.25 -999.25 63.0248 0.581194 65.5638 0.7401 1.9576 
  -999.25 -999.25 0.7217 0.7121 
8082.000 
  8.5421 -999.25 -1.13989 -999.25 -999.25 59.7879 0.560172 65.2226 0.7345 1.9992 
  -999.25 -999.25 0.6994 0.6242 
8082.500 
  8.5079 -999.25 -1.2702 -999.25 -999.25 63.5026 0.634628 71.357 0.7755 1.8541 
  -999.25 -999.25 0.6975 0.648 
8083.000 
  8.5811 -999.25 -1.36434 -999.25 -999.25 64.0761 0.5922 74.4975 0.8932 1.7614 
  -999.25 -999.25 0.6807 0.6583 
8083.500 
  8.4775 -999.25 -1.52735 -999.25 -999.25 64.8878 0.690357 77.5489 0.9163 1.6036 
  -999.25 -999.25 0.6656 0.6548 
8084.000 
  8.5289 -999.25 -1.53033 -999.25 -999.25 68.1545 0.59046 74.0545 0.8698 1.6052 
  -999.25 -999.25 0.6626 0.6586 
8084.500 
  8.5039 -999.25 -1.50821 -999.25 -999.25 74.2869 0.626448 74.6762 0.8078 1.6282 
  -999.25 -999.25 0.6202 0.5672 
8085.000 
  8.4538 -999.25 -1.48008 -999.25 -999.25 79.4402 0.675872 75.464 0.8877 1.6677 
  -999.25 -999.25 0.6304 0.58 
8085.500 
  8.4973 -999.25 -1.22894 -999.25 -999.25 78.6537 0.593815 65.6912 1.0156 1.9457 
  -999.25 -999.25 0.6461 0.6393 
8086.000 
  8.5143 -999.25 -0.991135 -999.25 -999.25 72.3022 0.555348 57.1029 1.0683 2.1878 
  -999.25 -999.25 0.6922 0.8301 
8086.500 
  8.5357 -999.25 -0.829961 -999.25 -999.25 64.716 0.494486 52.0094 0.6798 2.3157 
  -999.25 -999.25 0.8174 0.8854 
8087.000 
  8.5938 -999.25 -0.808403 -999.25 -999.25 58.8388 0.553052 50.9355 0.7116 2.2926 
  -999.25 -999.25 0.7515 0.7043 
8087.500 
  8.5072 -999.25 -0.87262 -999.25 -999.25 56.4774 0.532318 52.015 0.8681 2.205 
  -999.25 -999.25 0.6799 0.5901 
