~Version Information
VERS.                2.00 :CWLS Log ASCII Standard
WRAP.                  NO :One line per depth step
#
~Well Information
#MNEM.UNIT               DATA                    DESCRIPTION OF MNEMONIC
#--- ---- ----------------------------------- -------------------------------
STRT.F                               8494.000 :START Depth
STOP.F                              13418.500 :STOP Depth
STEP.F                                  0.500 :STEP Length
NULL.                                -999.250 :NULL Value
DATE.                              2009-09-07 :LOG DATE
#
~Curve Information
#--- ---- ----------------------------------- -------------------------------
DEPTH.F                                        :
BVW .V/V                                      :Bound Volume Water
CARB_FLAG.UNITLESS                                     :Carbonate flag
COAL_FLAG.UNITLESS                                     :Coal flag
KLOGH.MD                                       :Calculated Horizontal Permeability From Logs
PHIF.V/V                                      :Final Porosity
SAND_FLAG.UNITLESS                                     :Sand Flag
SW  .V/V                                      :Water Saturation
VSH .V/V                                      :Volume of Shale
#
~ASCII data
# ...
13035.501 0.2417 0 0 166.013 0.241732 1 1 0.1904 
13036.001 0.2397 0 0 169.001 0.244642 1 0.9796 0.1921 
13036.501 0.2418 0 0 153.08 0.24175 1 1 0.1943 
13037.001 0.239 0 0 151.151 0.244549 1 0.9773 0.1974 
13037.501 0.2276 0 0 131.551 0.240493 1 0.9464 0.2005 
13038.001 0.2496 0 0 132.589 0.250317 1 0.997 0.2089 
13038.501 0.2457 0 0 109.902 0.245685 1 1 0.2138 
13039.001 0.2325 0 0 55.5283 0.232548 1 1 0.2351 
13039.501 0.165 1 0 7.9131 0.165029 1 1 0.2691 
13040.001 0.1187 0 0 1.2967 0.118743 1 1 0.3152 
13040.501 0.1205 0 0 1.1805 0.128057 1 0.9407 0.328 
13041.001 0.1605 0 0 5.9173 0.186057 1 0.8624 0.3018 
13041.501 0.2164 0 0 61.1816 0.248796 1 0.8697 0.2449 
13042.001 0.2444 0 0 140.701 0.258766 1 0.9446 0.2135 
13042.501 0.2474 0 0 182.839 0.256917 1 0.9629 0.1993 
13043.001 0.2522 0 0 205.973 0.254726 1 0.9902 0.1916 
13043.501 0.2462 0 0 221.386 0.251597 1 0.9784 0.1853 
13044.001 0.2537 0 0 249.607 0.253708 1 1 0.1814 
13044.501 0.2518 0 0 184.323 0.251792 1 1 0.1943 
13045.001 0.2478 0 0 149.129 0.247818 1 1 0.201 
13045.501 0.2474 0 0 163.943 0.250219 1 0.9886 0.1986 
13046.001 0.2443 0 0 181.794 0.244344 1 1 0.1884 
13046.501 0.2431 0 0 168.246 0.243115 1 1 0.191 
13047.001 0.2419 0 0 139.767 0.241912 1 1 0.1989 
13047.501 0.2387 0 0 137.125 0.238698 1 1 0.1969 
13048.001 0.2381 0 0 167.623 0.238149 1 1 0.1868 
13048.501 0.2415 0 0 214.75 0.241518 1 1 0.1778 
13049.001 0.2401 0 0 207.179 0.240066 1 1 0.1782 
13049.501 0.2379 0 0 182.952 0.237903 1 1 0.1823 
13050.001 0.2267 0 0 160.987 0.226729 1 1 0.1786 
13050.501 0.2251 0 0 148.846 0.225093 1 1 0.1809 
13051.001 0.2308 0 0 157.569 0.230797 1 1 0.1832 
13051.501 0.2292 0 0 130.263 0.229163 1 1 0.1909 
13052.001 0.2254 0 0 118.565 0.225414 1 1 0.1922 
13052.501 0.223 0 0 144.536 0.230347 1 0.9682 0.187 
13053.001 0.2329 0 0 144.952 0.233168 1 0.999 0.1893 
13053.501 0.2328 0 0 134.096 0.234003 1 0.9949 0.1938 
13054.001 0.2282 0 0 103.324 0.228189 1 1 0.2013 
13054.501 0.217 0 0 67.4598 0.220984 1 0.9818 0.2154 
13055.001 0.1786 0 0 30.0717 0.192174 1 0.9292 0.2288 
13055.501 0.1209 0 0 5.5777 0.120857 1 1 0.2467 
13056.001 0.0904 0 0 2.2036 0.0904 0 1 0.2645 
13056.501 0.0784 0 0 1.0998 0.0784 0 1 0.2873 
13057.001 0.0746 1 0 1.3013 0.074629 0 1 0.2759 
13057.501 0.0632 1 0 1.3453 0.0632 0 1 0.2641 
13058.001 0.0505 1 0 1.7915 0.050457 0 1 0.2389 
13058.501 0.0445 1 0 1.7376 0.044457 0 1 0.2351 
13059.001 0.047 1 0 2.7271 0.047029 0 1 0.2156 
13059.501 0.0463 1 0 3.3676 0.046343 0 1 0.2048 
13060.001 0.0449 1 0 3.1793 0.044914 0 1 0.2063 
13060.501 0.0483 0 0 2.6119 0.048286 0 1 0.2188 
13061.001 0.0617 0 0 2.4746 0.061657 0 1 0.2333 
13061.501 0.0859 0 0 2.0095 0.085943 0 1 0.2649 
13062.001 0.093 0 0 0.9808 0.093029 0 1 0.3058 
13062.501 0.1014 0 0 0.6921 0.101429 1 1 0.3301 
13063.001 0.0907 1 0 0.5119 0.090686 0 1 0.3351 
13063.501 0.0926 1 0 0.6133 0.092629 0 1 0.3282 
13064.001 0.072 0 0 0.4014 0.072 0 1 0.3303 
13064.501 0.0657 1 0 0.6081 0.065714 0 1 0.3046 
13065.001 0.0743 0 0 2.2356 0.074343 0 1 0.2495 
13065.501 0.108 0 0 13.1961 0.108 1 1 0.1937 
13066.001 0.147 0 0 65.199 0.146971 1 1 0.1513 
13066.501 0.1903 0 0 195.276 0.190281 1 1 0.1368 
13067.001 0.1943 0 0 261.086 0.194317 1 1 0.1264 
13067.501 0.2014 0 0 295.099 0.201425 1 1 0.1268 
13068.001 0.1998 0 0 266.646 0.199813 1 1 0.1303 
13068.501 0.1974 0 0 252.796 0.197382 1 1 0.1307 
13069.001 0.1962 0 0 233.361 0.196213 1 1 0.1335 
13069.501 0.207 0 0 351.604 0.206962 1 1 0.1233 
13070.001 0.213 0 0 361.216 0.213005 1 1 0.1274 
13070.501 0.2182 0 0 406.56 0.218176 1 1 0.1263 
13071.001 0.2167 0 0 410.392 0.216745 1 1 0.1245 
13071.501 0.2142 0 0 467.672 0.214228 1 1 0.116 
13072.001 0.2113 0 0 458.543 0.211299 1 1 0.1143 
13072.501 0.2101 0 0 417.397 0.210097 1 1 0.1178 
13073.001 0.2106 0 0 423.937 0.210584 1 1 0.1175 
13073.501 0.2113 0 0 485.19 0.211284 1 1 0.1116 
13074.001 0.2124 0 0 573.416 0.212433 1 1 0.1046 
13074.501 0.2182 0 0 701.701 0.218241 1 1 0.1 
13075.001 0.2085 0 0 623.565 0.20848 1 1 0.097 
13075.501 0.2073 0 0 615.536 0.207296 1 1 0.0966 
13076.001 0.2048 0 0 564.814 0.204769 1 1 0.0985 
13076.501 0.2087 0 0 583.859 0.208679 1 1 0.1003 
13077.001 0.2074 0 0 644.893 0.207401 1 1 0.0944 
13077.501 0.2082 0 0 610.133 0.208169 1 1 0.0978 
13078.001 0.2036 0 0 455.663 0.203619 1 1 0.1078 
13078.501 0.2004 0 0 310.524 0.200381 1 1 0.1234 
13079.001 0.2015 0 0 285.713 0.201544 1 1 0.1285 
13079.501 0.2004 0 0 352.719 0.200378 1 1 0.1173 
13080.001 0.2063 0 0 490.285 0.206304 1 1 0.1067 
13080.501 0.2091 0 0 532.741 0.209084 1 1 0.1051 
13081.001 0.208 0 0 501.755 0.208029 1 1 0.1071 
13081.501 0.2073 0 0 557.616 0.207293 1 1 0.1013 
13082.001 0.2068 0 0 755.147 0.206817 1 1 0.0863 
13082.501 0.2043 0 0 675.235 0.204323 1 1 0.0895 
13083.001 0.2037 0 0 480.751 0.20374 1 1 0.1053 
13083.501 0.201 0 0 329.772 0.20102 1 1 0.1211 
13084.001 0.1993 0 0 324.946 0.199311 1 1 0.1203 
13084.501 0.1949 0 0 334.747 0.194915 1 1 0.115 
13085.001 0.1984 0 0 388.199 0.198438 1 1 0.1109 
13085.501 0.2038 0 0 398.562 0.203832 1 1 0.1145 
13086.001 0.2037 0 0 348.727 0.203738 1 1 0.1208 
13086.501 0.2071 0 0 330.155 0.207144 1 1 0.1265 
13087.001 0.2098 0 0 376.325 0.209827 1 1 0.1226 
13087.501 0.2037 0 0 360.461 0.203741 1 1 0.1192 
13088.001 0.2072 0 0 477.421 0.207176 1 1 0.1087 
13088.501 0.2085 0 0 535.676 0.208537 1 1 0.1044 
13089.001 0.2092 0 0 605.296 0.209219 1 1 0.0991 
13089.501 0.2088 0 0 601.485 0.208818 1 1 0.099 
13090.001 0.2066 0 0 512.872 0.20663 1 1 0.1048 
13090.501 0.2023 0 0 390.716 0.202315 1 1 0.1141 
13091.001 0.2039 0 0 272.517 0.203938 1 1 0.1329 
13091.501 0.2066 0 0 244.791 0.206593 1 1 0.1404 
13092.001 0.2169 0 0 306.485 0.216919 1 1 0.1388 
13092.501 0.217 0 0 543.085 0.22164 1 0.979 0.1154 
13093.001 0.2244 0 0 663.229 0.226717 1 0.9899 0.1102 
13093.501 0.2275 0 0 703.334 0.227543 1 1 0.1081 
13094.001 0.2245 0 0 574.969 0.224506 1 1 0.1152 
13094.501 0.227 0 0 772.054 0.226982 1 1 0.1031 
13095.001 0.228 0 0 748.089 0.22803 1 1 0.1056 
13095.501 0.2221 0 0 660.911 0.22324 1 0.9949 0.1073 
13096.001 0.2088 0 0 540.025 0.223658 1 0.9335 0.1174 
13096.501 0.2192 0 0 563.012 0.219211 1 1 0.1115 
13097.001 0.2201 0 0 502.855 0.220122 1 1 0.1177 
13097.501 0.2111 0 0 401.212 0.211099 1 1 0.1206 
13098.001 0.1899 0 0 253.159 0.189858 1 1 0.1239 
13098.501 0.1741 0 0 181.981 0.174139 1 1 0.1259 
13099.001 0.1619 0 0 126.169 0.161859 1 1 0.1327 
13099.501 0.1815 0 0 153.066 0.181497 1 1 0.1408 
13100.001 0.1895 0 0 176.743 0.189453 1 1 0.1409 
13100.501 0.2025 0 0 240.078 0.202493 1 1 0.1377 
13101.001 0.2006 0 0 285.3 0.205193 1 0.9776 0.1318 
13101.501 0.2102 0 0 379.181 0.211729 1 0.9928 0.1239 
13102.001 0.2161 0 0 566.044 0.216065 1 1 0.1084 
13102.501 0.2185 0 0 826.337 0.218482 1 1 0.0923 
13103.001 0.2211 0 0 982.985 0.221094 1 1 0.0862 
13103.501 0.2226 0 0 1039.24 0.22257 1 1 0.0849 
13104.001 0.2205 0 0 878.413 0.220504 1 1 0.0911 
13104.501 0.2184 0 0 801.233 0.218407 1 1 0.0937 
13105.001 0.2184 0 0 681.962 0.218395 1 1 0.1015 
13105.501 0.2165 0 0 619.414 0.216475 1 1 0.1044 
13106.001 0.2117 0 0 602.202 0.211724 1 1 0.1016 
13106.501 0.2136 0 0 597.841 0.21363 1 1 0.1036 
13107.001 0.2117 0 0 538.637 0.211737 1 1 0.107 
13107.501 0.2091 0 0 488.253 0.209131 1 1 0.1094 
13108.001 0.2108 0 0 579.756 0.210803 1 1 0.1026 
13108.501 0.2126 0 0 690.031 0.212621 1 1 0.0958 
13109.001 0.2086 0 0 699.568 0.208575 1 1 0.0915 
13109.501 0.2116 0 0 696.654 0.211607 1 1 0.0944 
13110.001 0.2082 0 0 702.743 0.208204 1 1 0.091 
13110.501 0.2083 0 0 838.846 0.208302 1 1 0.0825 
13111.001 0.2083 0 0 1163.05 0.208315 1 1 0.0668 
13111.501 0.2075 0 0 887.297 0.207457 1 1 0.0791 
13112.001 0.2092 0 0 725.571 0.209186 1 1 0.0903 
13112.501 0.2032 0 0 567.105 0.203175 1 1 0.0969 
13113.001 0.2078 0 0 728.992 0.207783 1 1 0.0888 
13113.501 0.2044 0 0 651.008 0.204405 1 1 0.0913 
13114.001 0.2014 0 0 569.245 0.201404 1 1 0.0951 
13114.501 0.2046 0 0 615.513 0.204616 1 1 0.0942 
13115.001 0.2073 0 0 690.83 0.207276 1 1 0.091 
