~Version Information
VERS.                2.00 :CWLS Log ASCII Standard
WRAP.                 YES :Multiple lines per depth step
#
~Well Information
#MNEM.UNIT               DATA                    DESCRIPTION OF MNEMONIC
#--- ---- ----------------------------------- -------------------------------
STRT.F                                  0.000 :START Depth
STOP.F                              13418.500 :STOP Depth
STEP.F                                  0.500 :STEP Length
NULL.                                -999.250 :NULL Value
DATE.                              2009-09-07 :LOG DATE
#
~Curve Information
#--- ---- ----------------------------------- -------------------------------
DEPTH.F                                        :
CALI.IN                                       :Ultrasonic Caliper Average Diameter
DRHB.G/CC                                     :Bulk Density Correction  Bottom
DRHO.G/CC                                     :Bulk Density Correction
DRHU.G/CC                                     :Bulk Density Correction  Up
DT  .US/F                                     :Delta-T Compressional
GR  .GAPI                                     :Gamma Ray
NPHI.V/V                                      :Neutron Porosity
PEF .B/E                                      :Photoelectric Factor Bottom
RD  .OHMM                                     :Deep Resistivity
RHOB.G/CC                                     :Bulk Density
ROBB.G/CC                                     :Bulk Density  Bottom
ROBU.G/CC                                     :Bulk Density  Up
RS  .OHMM                                     :Shallow Resistivity
RT  .OHMM                                     :True Resistivity
#
~ASCII data
# ...
8642.000 
  8.5025 -999.25 0.00694 -999.25 116.739 70.0213 0.370261 3.1497 1.2623 2.3464 
  -999.25 -999.25 0.7033 0.7004 
8642.500 
  8.5144 -999.25 -0.001237 -999.25 112.868 65.0304 0.32176 3.7014 1.1875 2.4018 
  -999.25 -999.25 0.6297 0.5273 
8643.000 
  8.5284 -999.25 0.009323 -999.25 114.644 58.6557 0.314729 4.1665 1.0936 2.4612 
  -999.25 -999.25 0.7721 0.7903 
8643.500 
  8.5496 -999.25 0.024949 -999.25 115.468 54.8488 0.359157 4.8446 1.1059 2.4913 
  -999.25 -999.25 0.8831 0.8778 
8644.000 
  8.5591 -999.25 0.073097 -999.25 115.579 54.4153 0.309135 4.6306 1.3735 2.5572 
  -999.25 -999.25 0.8482 0.7286 
8644.500 
  8.5705 -999.25 0.075376 -999.25 114.963 57.742 0.304544 5.2953 1.5692 2.6107 
  -999.25 -999.25 0.8727 0.7202 
8645.000 
  8.5734 -999.25 0.042062 -999.25 114.63 59.0495 0.282882 5.3359 0.8274 2.6354 
  -999.25 -999.25 0.9785 1.171 
8645.500 
  8.5149 -999.25 -0.007827 -999.25 114.156 58.544 0.353636 5.2227 0.8121 2.5375 
  -999.25 -999.25 0.9289 1.1337 
8646.000 
  8.5359 -999.25 -0.016711 -999.25 111.772 60.52 0.341196 4.3532 1.0132 2.4676 
  -999.25 -999.25 0.7952 0.8313 
8646.500 
  8.5488 -999.25 -0.009746 -999.25 110.402 60.1099 0.378364 4.0684 0.889 2.4164 
  -999.25 -999.25 0.8222 0.8985 
8647.000 
  8.5162 -999.25 -0.010856 -999.25 108.154 63.1751 0.397297 3.8475 0.9702 2.3812 
  -999.25 -999.25 0.7155 0.68 
8647.500 
  8.5616 -999.25 -0.010531 -999.25 106.905 64.2039 0.397712 3.7937 0.9363 2.3579 
  -999.25 -999.25 0.6075 0.6286 
8648.000 
  8.5516 -999.25 -0.005924 -999.25 106.642 67.1844 0.415432 3.8093 0.8687 2.3589 
  -999.25 -999.25 0.7143 0.753 
8648.500 
  8.5543 -999.25 -0.01084 -999.25 107.261 66.8745 0.407591 4.1061 1.1017 2.3773 
  -999.25 -999.25 0.7227 0.694 
8649.000 
  8.5765 -999.25 0.009881 -999.25 108.983 64.2892 0.384626 4.1142 1.0672 2.4296 
  -999.25 -999.25 0.7441 0.7345 
8649.500 
  8.6118 -999.25 0.015089 -999.25 111.299 61.8186 0.361781 4.0241 0.8736 2.4136 
  -999.25 -999.25 0.8266 0.8745 
8650.000 
  8.5986 -999.25 0.024957 -999.25 112.351 61.8852 0.383303 3.6234 0.752 2.3811 
  -999.25 -999.25 0.7863 0.8826 
8650.500 
  8.6066 -999.25 0.007967 -999.25 112.519 64.0935 0.42265 3.5846 0.7307 2.3242 
  -999.25 -999.25 0.6329 0.6683 
8651.000 
  8.6184 -999.25 0.013117 -999.25 114.115 68.8686 0.430019 3.6574 0.9437 2.3168 
  -999.25 -999.25 0.5561 0.5686 
8651.500 
  8.57 -999.25 0.007198 -999.25 116.12 70.3761 0.382382 3.5902 0.9987 2.3063 
  -999.25 -999.25 0.6454 0.5969 
8652.000 
  8.5397 -999.25 -0.000306 -999.25 116.19 68.0934 0.331383 3.285 1.1056 2.3024 
  -999.25 -999.25 0.7265 0.7078 
8652.500 
  8.5345 -999.25 -0.009939 -999.25 115.989 62.7629 0.327712 3.1437 0.7261 2.3042 
  -999.25 -999.25 0.9419 1.1247 
8653.000 
  8.4863 -999.25 -0.004207 -999.25 115.883 62.472 0.280923 3.4232 0.6767 2.3178 
  -999.25 -999.25 1.0353 1.2196 
8653.500 
  8.4384 -999.25 0.001353 -999.25 115.841 66.4224 0.318171 3.7175 0.822 2.3363 
  -999.25 -999.25 0.8852 0.9804 
8654.000 
  8.4666 -999.25 -0.001663 -999.25 116.294 72.1006 0.31762 3.8962 1.8412 2.3449 
  -999.25 -999.25 0.733 0.6011 
8654.500 
  8.4578 -999.25 -0.005905 -999.25 116.056 74.6607 0.331522 3.6813 0.8796 2.3488 
  -999.25 -999.25 0.8249 0.8062 
8655.000 
  8.4263 -999.25 -0.00895 -999.25 115.659 74.9388 0.355592 3.746 0.907 2.3503 
  -999.25 -999.25 0.8091 0.7865 
8655.500 
  8.4331 -999.25 -0.001225 -999.25 114.806 74.3147 0.315914 3.7143 1.0767 2.3591 
  -999.25 -999.25 0.7309 0.701 
8656.000 
  8.4613 -999.25 0.003786 -999.25 115.667 72.7949 0.345912 4.0783 0.6515 2.358 
  -999.25 -999.25 0.9677 1.1528 
8656.500 
  8.4653 -999.25 0.037465 -999.25 119.188 72.9274 0.340765 4.7882 1.2099 2.3722 
  -999.25 -999.25 0.6878 0.6596 
8657.000 
  8.4966 -999.25 0.055025 -999.25 122.86 75.8673 0.344481 5.3543 1.0084 2.3736 
  -999.25 -999.25 0.6905 0.654 
8657.500 
  8.4884 -999.25 0.066115 -999.25 122.18 82.78 0.363959 5.9274 0.7736 2.3864 
  -999.25 -999.25 0.8603 0.9253 
8658.000 
  8.4756 -999.25 0.050342 -999.25 115.342 89.7787 0.380551 6.08 0.9295 2.3686 
  -999.25 -999.25 0.7334 0.801 
8658.500 
  8.5328 -999.25 0.058277 -999.25 101.941 89.5974 0.345156 6.5365 0.9102 2.3676 
  -999.25 -999.25 0.7186 0.7325 
8659.000 
  8.5766 -999.25 0.060154 -999.25 97.3152 83.8825 0.363485 6.3461 1.02 2.3652 
  -999.25 -999.25 0.677 0.6584 
8659.500 
  8.5881 -999.25 0.04968 -999.25 94.6167 77.0476 0.413617 5.5689 0.8234 2.3726 
  -999.25 -999.25 0.7806 0.7778 
8660.000 
  8.4797 -999.25 0.0249 -999.25 93.6481 75.0528 0.393981 4.6211 0.9951 2.3712 
  -999.25 -999.25 0.7736 0.7945 
8660.500 
  8.4794 -999.25 0.002813 -999.25 91.3542 72.1437 0.448362 4.0526 1.0634 2.3509 
  -999.25 -999.25 0.7226 0.7471 
8661.000 
  8.5003 -999.25 0.002301 -999.25 92.1778 69.9691 0.411308 4.2048 1.0366 2.3337 
  -999.25 -999.25 0.699 0.8037 
8661.500 
  8.605 -999.25 0.008498 -999.25 94.6195 67.9119 0.46869 4.3068 1.286 2.3243 
  -999.25 -999.25 0.5676 0.5938 
8662.000 
  8.612 -999.25 0.020696 -999.25 95.789 69.499 0.352527 4.4753 1.1329 2.334 
  -999.25 -999.25 0.5788 0.6122 
8662.500 
  8.5541 -999.25 0.02064 -999.25 96.4712 69.8152 0.452734 4.3866 1.0619 2.3491 
  -999.25 -999.25 0.6117 0.6662 
8663.000 
  8.5557 -999.25 0.005823 -999.25 97.9339 70.9017 0.407164 4.2649 1.1546 2.3504 
  -999.25 -999.25 0.5944 0.6482 
8663.500 
  8.516 -999.25 -0.000958 -999.25 98.8075 69.3988 0.400671 4.1039 1.0118 2.3483 
  -999.25 -999.25 0.7433 0.8015 
8664.000 
  8.5054 -999.25 -0.00343 -999.25 97.2262 65.5408 0.359627 4.0568 1.3402 2.3435 
  -999.25 -999.25 0.827 0.7901 
8664.500 
  8.5079 -999.25 0.008704 -999.25 98.0446 57.427 0.340451 4.0651 1.1629 2.351 
  -999.25 -999.25 1.0444 1.1191 
8665.000 
  8.508 -999.25 0.014114 -999.25 95.8462 52.4289 0.27393 4.0427 1.3574 2.3503 
  -999.25 -999.25 1.1206 0.9899 
8665.500 
  8.5086 -999.25 0.015793 -999.25 91.0077 51.0299 0.260692 3.9016 1.1802 2.3443 
  -999.25 -999.25 1.1562 1.081 
8666.000 
  8.4948 -999.25 0.026563 -999.25 93.545 53.898 0.284049 4.137 1.0682 2.3307 
  -999.25 -999.25 1.1941 1.0368 
8666.500 
  8.5109 -999.25 0.038421 -999.25 95.1407 54.9482 0.275233 4.4671 0.9425 2.3219 
  -999.25 -999.25 1.1934 1.0327 
8667.000 
  8.4845 -999.25 0.0389 -999.25 93.5898 54.5949 0.285521 4.5596 0.9892 2.3202 
  -999.25 -999.25 1.1848 1.017 
8667.500 
  8.5105 -999.25 0.01895 -999.25 90.5833 50.8502 0.26583 4.0636 0.9656 2.3146 
  -999.25 -999.25 1.1271 0.9845 
8668.000 
  8.4863 -999.25 0.009239 -999.25 90.9358 49.6354 0.251097 3.5583 0.8942 2.3215 
  -999.25 -999.25 1.1714 1.095 
8668.500 
  8.4374 -999.25 0.008953 -999.25 94.6504 48.6309 0.270728 3.257 0.991 2.3312 
  -999.25 -999.25 1.0748 1.0353 
8669.000 
  8.4862 -999.25 0.006519 -999.25 94.94 50.0639 0.268561 3.3229 0.9779 2.3532 
  -999.25 -999.25 1.1479 1.0205 
8669.500 
  8.4698 -999.25 -0.00036 -999.25 94.94 49.6889 0.280245 3.6661 0.9247 2.3796 
  -999.25 -999.25 1.1713 1.0831 
8670.000 
  8.4909 -999.25 -0.005855 -999.25 92.7701 52.7937 0.268283 3.923 0.9763 2.3959 
  -999.25 -999.25 1.1676 1.0793 
8670.500 
  8.5384 -999.25 -0.000274 -999.25 86.2763 55.1992 0.284068 4.2488 1.0933 2.4009 
  -999.25 -999.25 1.131 1.0452 
8671.000 
  8.5778 -999.25 0.006063 -999.25 82.2734 59.2503 0.315325 4.4141 1.1107 2.3948 
  -999.25 -999.25 1.1528 1.0478 
8671.500 
  8.5432 -999.25 0.008377 -999.25 82.9122 61.2654 0.279582 4.4219 1.1195 2.3721 
  -999.25 -999.25 1.2122 1.0834 
8672.000 
  8.5361 -999.25 0.01177 -999.25 91.1739 60.0678 0.299675 4.0756 1.2036 2.3543 
  -999.25 -999.25 1.1307 1.0019 
8672.500 
  8.5066 -999.25 0.001396 -999.25 90.3234 55.6172 0.297624 3.5868 1.1081 2.3218 
  -999.25 -999.25 1.1234 1.0876 
8673.000 
  8.4648 -999.25 0.00619 -999.25 89.8884 49.4859 0.286805 3.1752 1.152 2.312 
  -999.25 -999.25 1.0265 1.0366 
8673.500 
  8.4746 -999.25 -0.001532 -999.25 89.2604 44.2792 0.268953 2.9078 1.1303 2.2878 
  -999.25 -999.25 0.8838 0.8499 
8674.000 
  8.4807 -999.25 -0.001274 -999.25 88.8562 42.338 0.240849 2.7905 0.9736 2.2765 
  -999.25 -999.25 0.8161 0.8001 
8674.500 
  8.4936 -999.25 0.003941 -999.25 88.4045 39.27 0.259416 3.0295 0.98 2.269 
  -999.25 -999.25 0.794 0.7755 
