~Version Information
VERS.                2.00 :CWLS Log ASCII Standard
WRAP.                  NO :One line per depth step
#
~Well Information
#MNEM.UNIT               DATA                    DESCRIPTION OF MNEMONIC
#--- ---- ----------------------------------- -------------------------------
STRT.F                               8494.000 :START Depth
STOP.F                              13418.500 :STOP Depth
STEP.F                                  0.500 :STEP Length
NULL.                                -999.250 :NULL Value
DATE.                              2009-09-07 :LOG DATE
#
~Curve Information
#--- ---- ----------------------------------- -------------------------------
DEPTH.F                                        :
BVW .V/V                                      :Bound Volume Water
CARB_FLAG.UNITLESS                                     :Carbonate flag
COAL_FLAG.UNITLESS                                     :Coal flag
KLOGH.MD                                       :Calculated Horizontal Permeability From Logs
PHIF.V/V                                      :Final Porosity
SAND_FLAG.UNITLESS                                     :Sand Flag
SW  .V/V                                      :Water Saturation
VSH .V/V                                      :Volume of Shale
#
~ASCII data
# ...
10019.001 0.0562 0 0 0.001 0.056174 0 1 0.0611 
10019.501 0.0602 0 0 0.001 0.060233 0 1 0.0592 
10020.001 0.0618 0 0 0.001 0.061848 0 1 0.059 
10020.501 0.0707 0 0 0.001 0.070734 0 1 0.061 
10021.001 0.0636 0 0 0.001 0.063554 0 1 0.0582 
10021.501 0.0551 0 0 0.001 0.05508 0 1 0.0557 
10022.001 0.043 0 0 0.001 0.042999 0 1 0.0564 
10022.501 0.042 0 0 0.001 0.042047 0 1 0.0577 
10023.001 0.043 0 0 0.001 0.043048 0 1 0.0586 
10023.501 0.0529 0 0 0.001 0.052909 0 1 0.0452 
10024.001 0.0587 0 0 0.001 0.058745 0 1 0.0475 
10024.501 0.0655 0 0 0.001 0.065526 0 1 0.0498 
10025.001 0.0659 0 0 0.001 0.065918 0 1 0.0533 
10025.501 0.0686 0 0 0.001 0.06865 0 1 0.046 
10026.001 0.058 0 0 0.001 0.058021 0 1 0.0415 
10026.501 0.0577 0 0 0.001 0.057659 0 1 0.0505 
10027.001 0.0461 0 0 0.001 0.046144 0 1 0.0603 
10027.501 0.0532 0 0 0.001 0.053158 0 1 0.0657 
10028.001 0.0525 0 0 0.001 0.052462 0 1 0.0583 
10028.501 0.0591 0 0 0.001 0.059052 0 1 0.0432 
10029.001 0.0625 0 0 0.001 0.062543 0 1 0.0304 
10029.501 0.06 0 0 0.001 0.060034 0 1 0.0293 
10030.001 0.0609 0 0 0.001 0.060893 0 1 0.0333 
10030.501 0.0594 0 0 0.001 0.059381 0 1 0.0333 
10031.001 0.0567 0 0 0.001 0.056713 0 1 0.0311 
10031.501 0.0553 0 0 0.001 0.055282 0 1 0.039 
10032.001 0.0365 0 0 0.001 0.036521 0 1 0.0529 
10032.501 0.0306 1 0 0.001 0.030578 0 1 0.0662 
10033.001 0.0265 1 0 0.001 0.026513 0 1 0.0716 
10033.501 0.0389 0 0 0.001 0.038942 0 1 0.0735 
10034.001 0.0489 0 0 0.001 0.048891 0 1 0.0739 
10034.501 0.0439 0 0 0.001 0.043912 0 1 0.0717 
10035.001 0.0466 0 0 0.001 0.046561 0 1 0.0627 
10035.501 0.046 0 0 0.001 0.046034 0 1 0.0498 
10036.001 0.0555 0 0 0.001 0.05548 0 1 0.0358 
10036.501 0.0553 0 0 0.001 0.055281 0 1 0.0328 
10037.001 0.0577 0 0 0.001 0.057673 0 1 0.0406 
10037.501 0.066 0 0 0.001 0.066027 0 1 0.0515 
10038.001 0.0714 0 0 0.001 0.071444 0 1 0.058 
10038.501 0.0726 0 0 0.001 0.072626 0 1 0.0574 
10039.001 0.0754 0 0 0.001 0.075407 0 1 0.054 
10039.501 0.0755 0 0 0.001 0.082591 0 0.914 0.0459 
10040.001 0.0828 0 0 0.001 0.086675 0 0.9558 0.048 
10040.501 0.0792 0 0 0.001 0.079209 0 1 0.0532 
10041.001 0.0598 0 0 0.001 0.059766 0 1 0.0599 
10041.501 0.0415 0 0 0.001 0.041505 0 1 0.064 
10042.001 0.0289 1 0 0.001 0.028886 0 1 0.0602 
10042.501 0.0299 1 0 0.001 0.029949 0 1 0.0482 
10043.001 0.0274 1 0 0.001 0.027397 0 1 0.0362 
10043.501 0.0287 1 0 0.001 0.028708 0 1 0.0363 
10044.001 0.0313 1 0 0.001 0.031256 0 1 0.0542 
10044.501 0.0334 1 0 0.001 0.033369 0 1 0.0769 
10045.001 0.0321 1 0 0.001 0.032134 0 1 0.0907 
10045.501 0.0305 1 0 0.001 0.030522 0 1 0.093 
10046.001 0.0288 1 0 0.001 0.028798 0 1 0.0854 
10046.501 0.0237 1 0 0.001 0.023718 0 1 0.0732 
10047.001 0.0264 1 0 0.001 0.026445 0 1 0.0681 
10047.501 0.0325 1 0 0.001 0.032454 0 1 0.0633 
10048.001 0.0331 1 0 0.001 0.033124 0 1 0.0614 
10048.501 0.0294 1 0 0.001 0.029414 0 1 0.059 
10049.001 0.0212 1 0 0.001 0.021193 0 1 0.057 
10049.501 0.0214 1 0 0.001 0.021418 0 1 0.0593 
10050.001 0.018 1 0 0.001 0.017961 0 1 0.0619 
10050.501 0.0181 1 0 0.001 0.018129 0 1 0.0511 
10051.001 0.0184 1 0 0.001 0.018442 0 1 0.0428 
10051.501 0.0126 1 0 0.001 0.012593 0 1 0.0302 
10052.001 0.0069 1 0 0.001 0.006897 0 1 0.0256 
10052.501 0.0139 1 0 0.001 0.013885 0 1 0.0223 
10053.001 0.0155 1 0 0.001 0.015507 0 1 0.0265 
10053.501 0.0207 1 0 0.001 0.020707 0 1 0.0348 
10054.001 0.0062 1 0 0.001 0.006205 0 1 0.047 
10054.501 0.0069 1 0 0.001 0.006925 0 1 0.0527 
10055.001 0.0103 1 0 0.001 0.010282 0 1 0.0593 
10055.501 0.0191 1 0 0.001 0.019127 0 1 0.057 
10056.001 0.028 1 0 0.001 0.028011 0 1 0.0516 
10056.501 0.0315 1 0 0.001 0.031468 0 1 0.0534 
10057.001 0.0383 0 0 0.001 0.03832 0 1 0.051 
10057.501 0.0373 0 0 0.001 0.037281 0 1 0.0583 
10058.001 0.0424 0 0 0.001 0.042442 0 1 0.049 
10058.501 0.0397 0 0 0.001 0.039706 0 1 0.044 
10059.001 0.0501 0 0 0.001 0.050112 0 1 0.0457 
10059.501 0.0642 0 0 0.001 0.0642 0 1 0.0556 
10060.001 0.0691 0 0 0.001 0.075745 0 0.912 0.0709 
10060.501 0.0668 0 0 0.001 0.086534 0 0.7722 0.0715 
10061.001 0.0725 0 0 0.001 0.083375 0 0.8699 0.0626 
10061.501 0.0739 0 0 0.001 0.081525 0 0.9065 0.0478 
10062.001 0.0715 0 0 0.001 0.071488 0 1 0.0298 
10062.501 0.0751 0 0 0.001 0.075072 0 1 0.0269 
10063.001 0.0841 0 0 0.001 0.085744 0 0.9809 0.0349 
10063.501 0.0884 0 0 0.001 0.10164 1 0.8696 0.0482 
10064.001 0.0932 0 0 0.001 0.108825 1 0.8563 0.0546 
10064.501 0.0993 0 0 0.001 0.112637 1 0.8812 0.0569 
10065.001 0.1006 0 0 0.001 0.100571 1 1 0.0568 
10065.501 0.0839 0 0 0.001 0.083917 0 1 0.0591 
10066.001 0.0772 0 0 0.001 0.077227 0 1 0.0552 
10066.501 0.0856 0 0 0.001 0.085609 0 1 0.0424 
10067.001 0.096 0 0 0.001 0.095952 0 1 0.0337 
10067.501 0.0971 0 0 0.001 0.097102 0 1 0.0308 
10068.001 0.0883 0 0 0.001 0.088332 0 1 0.0322 
10068.501 0.0855 0 0 0.001 0.085544 0 1 0.0364 
10069.001 0.0776 0 0 0.001 0.077614 0 1 0.0338 
10069.501 0.0781 0 0 0.001 0.078093 0 1 0.046 
10070.001 0.0704 0 0 0.001 0.070447 0 1 0.0564 
10070.501 0.0703 0 0 0.001 0.070337 0 1 0.0561 
10071.001 0.0791 0 0 0.001 0.079128 0 1 0.0476 
10071.501 0.0951 0 0 0.001 0.095102 0 1 0.0363 
10072.001 0.1148 0 0 0.001 0.114795 1 1 0.0315 
10072.501 0.1182 0 0 0.001 0.122617 1 0.9642 0.034 
10073.001 0.1172 0 0 0.001 0.122331 1 0.9584 0.0312 
10073.501 0.1144 0 0 0.001 0.122514 1 0.9335 0.0361 
10074.001 0.1124 0 0 0.001 0.119443 1 0.9411 0.0362 
10074.501 0.1127 0 0 0.001 0.115961 1 0.9721 0.0371 
10075.001 0.1051 0 0 0.001 0.105135 1 1 0.0321 
10075.501 0.0933 0 0 0.001 0.093346 0 1 0.026 
10076.001 0.0918 0 0 0.001 0.091754 0 1 0.028 
10076.501 0.0948 0 0 0.001 0.094754 0 1 0.0411 
10077.001 0.0908 0 0 0.001 0.090794 0 1 0.0536 
10077.501 0.0786 0 0 0.001 0.078616 0 1 0.0606 
10078.001 0.0652 0 0 0.001 0.065165 0 1 0.0489 
10078.501 0.0614 0 0 0.001 0.061372 0 1 0.0411 
10079.001 0.0602 0 0 0.001 0.060172 0 1 0.0323 
10079.501 0.0583 0 0 0.001 0.058312 0 1 0.0389 
10080.001 0.0515 0 0 0.001 0.051477 0 1 0.0446 
10080.501 0.0447 0 0 0.001 0.044739 0 1 0.0561 
10081.001 0.0341 1 0 0.001 0.034127 0 1 0.0629 
10081.501 0.0259 1 0 0.001 0.025871 0 1 0.0705 
10082.001 0.0239 1 0 0.001 0.02387 0 1 0.0812 
10082.501 0.0257 1 0 0.001 0.025683 0 1 0.0913 
10083.001 0.0354 1 0 0.001 0.035356 0 1 0.1004 
10083.501 0.0327 1 0 0.001 0.03272 0 1 0.1002 
10084.001 0.0264 1 0 0.001 0.026415 0 1 0.0995 
10084.501 0.0168 1 0 0.001 0.016768 0 1 0.0871 
10085.001 0.0072 1 0 0.001 0.007176 0 1 0.0751 
10085.501 -999.25 1 0 -999.25 -999.25 1 -999.25 0.0575 
10086.001 -999.25 1 0 -999.25 -999.25 1 -999.25 0.0482 
10086.501 0.0125 1 0 0.001 0.012459 0 1 0.0411 
10087.001 0.0203 1 0 0.001 0.020269 0 1 0.0387 
10087.501 0.0159 1 0 0.001 0.015944 0 1 0.0423 
10088.001 0.0049 1 0 0.001 0.004859 0 1 0.0423 
10088.501 0.0144 1 0 0.001 0.014352 0 1 0.0485 
10089.001 0.022 1 0 0.001 0.022024 0 1 0.0592 
10089.501 0.0285 1 0 0.001 0.028528 0 1 0.0707 
10090.001 0.0279 1 0 0.001 0.02792 0 1 0.076 
10090.501 0.0263 1 0 0.001 0.02634 0 1 0.0648 
10091.001 0.0239 1 0 0.001 0.023929 0 1 0.064 
10091.501 0.0212 1 0 0.001 0.021209 0 1 0.0637 
10092.001 0.0232 1 0 0.001 0.023245 0 1 0.0639 
10092.501 0.0311 1 0 0.001 0.031074 0 1 0.0683 
10093.001 0.0289 1 0 0.001 0.02887 0 1 0.0832 
10093.501 0.0257 1 0 0.001 0.025675 0 1 0.1014 
10094.001 0.014 1 0 0.001 0.014033 0 1 0.0993 
10094.501 0.0087 1 0 0.001 0.008673 0 1 0.0954 
10095.001 0.0061 1 0 0.001 0.006131 0 1 0.0941 
10095.501 0.0171 1 0 0.001 0.017112 0 1 0.0852 
10096.001 0.0315 1 0 0.001 0.031468 0 1 0.0828 
10096.501 0.041 0 0 0.001 0.041045 0 1 0.0801 
10097.001 0.0393 0 0 0.001 0.039292 0 1 0.0862 
10097.501 0.0429 0 0 0.001 0.042914 0 1 0.0882 
10098.001 0.0468 0 0 0.001 0.046805 0 1 0.0863 
10098.501 0.0435 0 0 0.001 0.043457 0 1 0.0724 
10099.001 0.0323 1 0 0.001 0.032284 0 1 0.061 
10099.501 0.0233 1 0 0.001 0.023276 0 1 0.0565 
10100.001 0.0269 1 0 0.001 0.026858 0 1 0.06 
10100.501 0.0364 0 0 0.001 0.036353 0 1 0.0652 
10101.001 0.0455 0 0 0.001 0.045532 0 1 0.0686 
10101.501 0.0525 0 0 0.001 0.052486 0 1 0.0735 
