~Version Information
VERS.                2.00 :CWLS Log ASCII Standard
WRAP.                  NO :One line per depth step
#
~Well Information
#MNEM.UNIT               DATA                    DESCRIPTION OF MNEMONIC
#--- ---- ----------------------------------- -------------------------------
STRT.F                               8494.000 :START Depth
STOP.F                              13418.500 :STOP Depth
STEP.F                                  0.500 :STEP Length
NULL.                                -999.250 :NULL Value
DATE.                              2009-09-07 :LOG DATE
#
~Curve Information
#--- ---- ----------------------------------- -------------------------------
DEPTH.F                                        :
BVW .V/V                                      :Bound Volume Water
CARB_FLAG.UNITLESS                                     :Carbonate flag
COAL_FLAG.UNITLESS                                     :Coal flag
KLOGH.MD                                       :Calculated Horizontal Permeability From Logs
PHIF.V/V                                      :Final Porosity
SAND_FLAG.UNITLESS                                     :Sand Flag
SW  .V/V                                      :Water Saturation
VSH .V/V                                      :Volume of Shale
#
~ASCII data
# ...
9396.001 0.156 0 0 137.193 0.320034 1 0.4876 0.2692 
9396.501 0.1667 0 0 224.48 0.312117 1 0.5342 0.2384 
9397.001 0.1904 0 0 312.046 0.299539 1 0.6356 0.2113 
9397.501 0.1814 0 0 242.631 0.295552 1 0.6137 0.2199 
9398.001 0.1987 0 0 129.729 0.29637 1 0.6704 0.2509 
9398.501 0.2437 0 0 55.4317 0.300551 1 0.8108 0.2956 
9399.001 0.1733 0 0 19.9814 0.299226 1 0.5793 0.3437 
9399.501 0.2203 0 0 8.754 0.307599 1 0.7162 0.391 
9400.001 0.1298 0 0 4.9462 0.318455 1 0.4077 0.4282 
9400.501 0.1039 0 0 3.0263 0.329609 1 0.3152 0.4618 
9401.001 0.0959 0 0 1.9442 0.334221 1 0.287 0.4872 
9401.501 0.0645 0 0 2.003 0.339427 1 0.1899 0.4904 
9402.001 0.0559 0 0 2.0931 0.343672 1 0.1627 0.4921 
9402.501 0.0656 0 0 2.8792 0.350566 1 0.1872 0.4828 
9403.001 0.0882 0 0 2.9085 0.347186 1 0.254 0.4793 
9403.501 0.1482 0 0 4.3763 0.340023 1 0.4357 0.4532 
9404.001 0.1583 0 0 5.3041 0.324925 1 0.4873 0.4305 
9404.501 0.1489 0 0 10.031 0.317077 1 0.4697 0.3928 
9405.001 0.1683 0 0 19.8091 0.310141 1 0.5427 0.3538 
9405.501 0.1798 0 0 28.3238 0.306072 1 0.5873 0.3329 
9406.001 0.1948 0 0 13.3288 0.292431 1 0.6661 0.3572 
9406.501 0.2171 0 0 11.0849 0.289299 1 0.7505 0.3633 
9407.001 0.2009 0 0 28.6806 0.290332 1 0.6919 0.3183 
9407.501 0.1984 0 0 230.589 0.298075 1 0.6657 0.2246 
9408.001 0.2019 0 0 899.559 0.293916 1 0.687 0.1553 
9408.501 0.2038 0 0 1441.95 0.286563 1 0.7111 0.126 
9409.001 0.1945 0 0 2020.21 0.283962 1 0.6849 0.1074 
9409.501 0.1921 0 0 2739.27 0.287181 1 0.669 0.0955 
9410.001 0.1851 0 0 3844.8 0.293757 1 0.6301 0.085 
9410.501 0.1853 0 0 4140.73 0.293351 1 0.6317 0.0811 
9411.001 0.1832 0 0 4832.57 0.294883 1 0.6212 0.075 
9411.501 0.1792 0 0 5248.38 0.289048 1 0.62 0.0658 
9412.001 0.1802 0 0 4500.17 0.288595 1 0.6243 0.0728 
9412.501 0.179 0 0 3365.2 0.285683 1 0.6266 0.0843 
9413.001 0.1801 0 0 3052.08 0.285003 1 0.632 0.0884 
9413.501 0.1747 0 0 2998.03 0.281972 1 0.6197 0.0865 
9414.001 0.1757 0 0 3397.03 0.280291 1 0.6268 0.079 
9414.501 0.1791 0 0 1995.75 0.27709 1 0.6464 0.1018 
9415.001 0.1818 0 0 1846.47 0.276193 1 0.6582 0.1048 
9415.501 0.1867 0 0 1586.49 0.2791 1 0.6688 0.1147 
9416.001 0.1883 0 0 1917.24 0.280524 1 0.6713 0.1068 
9416.501 0.1926 0 0 2202.62 0.282544 1 0.6818 0.1019 
9417.001 0.1895 0 0 2345.81 0.28174 1 0.6728 0.0982 
9417.501 0.1924 0 0 2464.24 0.283641 1 0.6783 0.0975 
9418.001 0.1909 0 0 2020.6 0.282536 1 0.6758 0.1061 
9418.501 0.1917 0 0 1972.69 0.289633 1 0.6617 0.1136 
9419.001 0.1982 0 0 1828.66 0.289258 1 0.6851 0.1169 
9419.501 0.1973 0 0 1568.83 0.289223 1 0.6821 0.1242 
9420.001 0.1908 0 0 1066.86 0.277276 1 0.6883 0.1322 
9420.501 0.193 0 0 945.026 0.277852 1 0.6947 0.1386 
9421.001 0.1917 0 0 1005.11 0.279118 1 0.6869 0.1367 
9421.501 0.1839 0 0 1093.56 0.282891 1 0.6502 0.136 
9422.001 0.1937 0 0 1205.32 0.284903 1 0.6799 0.1331 
9422.501 0.2047 0 0 933.742 0.286125 1 0.7154 0.1465 
9423.001 0.2051 0 0 920.056 0.288158 1 0.7117 0.1491 
9423.501 0.2083 0 0 1048.91 0.297857 1 0.6993 0.1513 
9424.001 0.212 0 0 1871.62 0.317566 1 0.6675 0.1409 
9424.501 0.2196 0 0 2837.13 0.332208 1 0.661 0.1339 
9425.001 0.2377 0 0 3827.48 0.337751 1 0.7038 0.1243 
9425.501 0.2375 0 0 4297.88 0.335152 1 0.7085 0.1164 
9426.001 0.2271 0 0 3035.01 0.325681 1 0.6973 0.1248 
9426.501 0.2244 0 0 1505.73 0.309203 1 0.7257 0.144 
9427.001 0.2116 0 0 555.812 0.283989 1 0.7451 0.1697 
9427.501 0.2026 0 0 243.331 0.267137 1 0.7582 0.1945 
9428.001 0.2057 0 0 195.541 0.271351 1 0.7579 0.2088 
9428.501 0.1916 0 0 285.254 0.2861 1 0.6696 0.2037 
9429.001 0.1916 0 0 717.113 0.304534 1 0.6291 0.1756 
9429.501 0.1951 0 0 1462.01 0.311158 1 0.6272 0.1471 
9430.001 0.1971 0 0 2794.82 0.315759 1 0.6243 0.12 
9430.501 0.2112 0 0 3134.68 0.317549 1 0.6652 0.116 
9431.001 0.2234 0 0 3131.47 0.317301 1 0.704 0.1159 
9431.501 0.2195 0 0 3064.37 0.317195 1 0.692 0.1168 
9432.001 0.2299 0 0 3012.04 0.312745 1 0.7351 0.1137 
9432.501 0.2159 0 0 3408.8 0.313652 1 0.6885 0.1085 
9433.001 0.1928 0 0 3537.62 0.314728 1 0.6125 0.1077 
9433.501 0.2038 0 0 3884.32 0.316593 1 0.6437 0.1048 
9434.001 0.1764 0 0 3395.12 0.315723 1 0.5587 0.1105 
9434.501 0.1912 0 0 3123.8 0.316714 1 0.6037 0.1154 
9435.001 0.182 0 0 3784.01 0.318145 1 0.572 0.1075 
9435.501 0.1602 0 0 3958.13 0.318446 1 0.503 0.1056 
9436.001 0.1886 0 0 4106.3 0.317 1 0.595 0.1025 
9436.501 0.225 0 0 3391.44 0.3158 1 0.7125 0.1107 
9437.001 0.2177 0 0 3364.81 0.314513 1 0.692 0.1099 
9437.501 0.1322 0 0 2774.57 0.311421 1 0.4243 0.1165 
9438.001 0.1469 0 0 2552.93 0.311608 1 0.4714 0.1206 
9438.501 0.1336 0 0 2948.03 0.309349 1 0.432 0.1117 
9439.001 0.159 0 0 3734.27 0.312344 1 0.509 0.1029 
9439.501 0.1726 0 0 4272.49 0.313492 1 0.5505 0.0975 
9440.001 0.1796 0 0 3476.52 0.315608 1 0.569 0.1093 
9440.501 0.1751 0 0 2880.93 0.310595 1 0.5638 0.1139 
9441.001 0.1465 0 0 3048.24 0.311339 1 0.4705 0.1119 
9441.501 0.1668 0 0 3588.57 0.313583 1 0.532 0.106 
9442.001 0.1854 0 0 3720.3 0.316871 1 0.5851 0.1072 
9442.501 0.1988 0 0 2912.51 0.315544 1 0.63 0.1178 
9443.001 0.1954 0 0 2461.78 0.316403 1 0.6175 0.1267 
9443.501 0.185 0 0 1965.86 0.317667 1 0.5824 0.1386 
9444.001 0.2031 0 0 1989.81 0.319117 1 0.6366 0.1393 
9444.501 0.2212 0 0 2532.61 0.31926 1 0.6929 0.1278 
9445.001 0.2201 0 0 2847.86 0.319666 1 0.6885 0.1225 
9445.501 0.2245 0 0 3347.82 0.318965 1 0.7037 0.1141 
9446.001 0.2463 0 0 3105.22 0.319493 1 0.7709 0.1182 
9446.501 0.2531 0 0 2962.41 0.320736 1 0.7892 0.1216 
9447.001 0.2544 0 0 3455.03 0.321785 1 0.7907 0.1151 
9447.501 0.2345 0 0 3352.45 0.32309 1 0.7258 0.1177 
9448.001 0.1829 0 0 4642.61 0.322223 1 0.5676 0.1012 
9448.501 0.1857 0 0 4292.56 0.322896 1 0.5751 0.1056 
9449.001 0.1856 0 0 5435.26 0.323628 1 0.5734 0.0949 
9449.501 0.2021 0 0 4507.24 0.323402 1 0.625 0.1037 
9450.001 0.1802 0 0 3206.26 0.320593 1 0.5619 0.1176 
9450.501 0.1471 0 0 2315.49 0.317397 1 0.4635 0.1305 
9451.001 0.1125 0 0 2288.67 0.315647 1 0.3563 0.1295 
9451.501 0.0847 0 0 3107.24 0.315897 1 0.2683 0.115 
9452.001 0.0693 0 0 3246.75 0.317885 1 0.218 0.1146 
9452.501 0.0747 0 0 3081.28 0.321026 1 0.2327 0.1199 
9453.001 0.0931 0 0 2875.26 0.323665 1 0.2877 0.1256 
9453.501 0.1475 0 0 3098.43 0.321211 1 0.4592 0.1198 
9454.001 0.2007 0 0 2843.38 0.321335 1 0.6244 0.1241 
9454.501 0.24 0 0 2660.39 0.317226 1 0.7566 0.1237 
9455.001 0.228 0 0 2518.14 0.316859 1 0.7195 0.126 
9455.501 0.2093 0 0 2579.93 0.315667 1 0.6632 0.1237 
9456.001 0.2248 0 0 3360.46 0.316961 1 0.7091 0.1121 
9456.501 0.2209 0 0 2984.67 0.317634 1 0.6955 0.1185 
9457.001 0.2465 0 0 3257.01 0.313033 1 0.7875 0.1102 
9457.501 0.2251 0 0 2568.27 0.315265 1 0.714 0.1236 
9458.001 0.2246 0 0 3177.1 0.315794 1 0.7114 0.1138 
9458.501 0.2192 0 0 3725.93 0.317177 1 0.6911 0.1074 
9459.001 0.2115 0 0 4024.64 0.313369 1 0.675 0.1002 
9459.501 0.2162 0 0 3795.42 0.311153 1 0.6948 0.1011 
9460.001 0.2304 0 0 2929.99 0.309157 1 0.7451 0.1118 
9460.501 0.2129 0 0 2553.21 0.308323 1 0.6906 0.1177 
9461.001 0.2134 0 0 2248.89 0.308506 1 0.6916 0.124 
9461.501 0.2097 0 0 2308.03 0.309285 1 0.6781 0.1234 
9462.001 0.2114 0 0 2247.37 0.308019 1 0.6863 0.1236 
9462.501 0.2109 0 0 2464.83 0.306559 1 0.6879 0.1179 
9463.001 0.2155 0 0 2859.61 0.306075 1 0.704 0.1103 
9463.501 0.2097 0 0 3100.91 0.30526 1 0.6869 0.1056 
9464.001 0.2089 0 0 2672.65 0.302879 1 0.6899 0.1107 
9464.501 0.2196 0 0 2530.39 0.301763 1 0.7276 0.1123 
9465.001 0.2281 0 0 2245.58 0.302474 1 0.754 0.1187 
9465.501 0.2227 0 0 2538.88 0.303888 1 0.7329 0.1141 
9466.001 0.2216 0 0 2320.85 0.30407 1 0.7288 0.1185 
9466.501 0.2021 0 0 2443.54 0.303248 1 0.6665 0.1153 
9467.001 0.2051 0 0 2170.12 0.301561 1 0.6803 0.1196 
9467.501 0.2093 0 0 2221.12 0.299834 1 0.6981 0.1169 
9468.001 0.2172 0 0 2137.81 0.298069 1 0.7288 0.1172 
9468.501 0.2162 0 0 2094.9 0.297258 1 0.7272 0.1174 
9469.001 0.209 0 0 2134.55 0.297147 1 0.7034 0.1164 
9469.501 0.2072 0 0 2427.2 0.298741 1 0.6935 0.1116 
9470.001 0.1996 0 0 2572.26 0.299174 1 0.6672 0.1092 
9470.501 0.2048 0 0 2290.74 0.296908 1 0.6898 0.1128 
