~Version Information
VERS.                2.00 :CWLS Log ASCII Standard
WRAP.                 YES :Multiple lines per depth step
#
~Well Information
#MNEM.UNIT               DATA                    DESCRIPTION OF MNEMONIC
#--- ---- ----------------------------------- -------------------------------
STRT.F                                  0.000 :START Depth
STOP.F                              13418.500 :STOP Depth
STEP.F                                  0.500 :STEP Length
NULL.                                -999.250 :NULL Value
DATE.                              2009-09-07 :LOG DATE
#
~Curve Information
#--- ---- ----------------------------------- -------------------------------
DEPTH.F                                        :
CALI.IN                                       :Ultrasonic Caliper Average Diameter
DRHB.G/CC                                     :Bulk Density Correction  Bottom
DRHO.G/CC                                     :Bulk Density Correction
DRHU.G/CC                                     :Bulk Density Correction  Up
DT  .US/F                                     :Delta-T Compressional
GR  .GAPI                                     :Gamma Ray
NPHI.V/V                                      :Neutron Porosity
PEF .B/E                                      :Photoelectric Factor Bottom
RD  .OHMM                                     :Deep Resistivity
RHOB.G/CC                                     :Bulk Density
ROBB.G/CC                                     :Bulk Density  Bottom
ROBU.G/CC                                     :Bulk Density  Up
RS  .OHMM                                     :Shallow Resistivity
RT  .OHMM                                     :True Resistivity
#
~ASCII data
# ...
13366.501 
  -999.25 0.0738 0.0738 0.1995 -999.25 33.362 0.07404 -999.25 2.916 2.5984 
  2.5984 2.5316 3.02 3.058 
13367.001 
  -999.25 0.0581 0.0581 0.198 -999.25 33.6106 0.069058 -999.25 2.762 2.6022 
  2.6022 2.5392 2.9894 3.0895 
13367.501 
  -999.25 0.0406 0.0406 0.1996 -999.25 35.2168 0.071078 -999.25 2.863 2.6023 
  2.6023 2.5619 3.5931 3.5657 
13368.001 
  -999.25 0.0269 0.0269 0.1923 -999.25 36.6706 0.081429 -999.25 2.916 2.5899 
  2.5899 2.5759 3.5882 3.8461 
13368.501 
  -999.25 0.0392 0.0392 0.2024 -999.25 38.4118 0.089147 -999.25 2.762 2.5858 
  2.5858 2.5889 3.465 3.7655 
13369.001 
  -999.25 0.039 0.039 0.2231 -999.25 47.8189 0.12271 -999.25 2.762 2.5737 
  2.5737 2.5862 3.4735 3.729 
13369.501 
  -999.25 0.0249 0.0249 0.2422 -999.25 61.5479 0.19442 -999.25 2.863 2.5622 
  2.5622 2.5851 3.4839 3.737 
13370.001 
  -999.25 0.0067 0.0067 0.2542 -999.25 75.6074 0.218305 -999.25 2.764 2.5534 
  2.5534 2.5769 3.5337 3.7469 
13370.501 
  -999.25 0.0184 0.0184 0.2601 -999.25 82.6112 0.24219 -999.25 2.713 2.5633 
  2.5633 2.5625 3.331 3.7464 
13371.001 
  -999.25 0.04 0.04 0.26 -999.25 86.7836 0.24219 -999.25 2.664 2.5659 
  2.5659 2.5541 3.2409 3.8757 
13371.501 
  -999.25 0.0604 0.0604 0.2602 -999.25 90.9426 0.24219 -999.25 2.616 2.5695 
  2.5695 2.5507 3.1386 3.9606 
13372.001 
  -999.25 0.0715 0.0715 0.2608 -999.25 93.26 0.24219 -999.25 2.616 2.5736 
  2.5736 2.5479 3.003 3.8755 
13372.501 
  -999.25 0.0606 0.0606 0.2574 -999.25 94.3812 0.24219 -999.25 2.569 2.5918 
  2.5918 2.5376 2.8834 3.3829 
13373.001 
  -999.25 0.0662 0.0662 0.2539 -999.25 93.0265 0.24219 -999.25 2.569 2.619 
  2.619 2.5329 2.787 2.915 
13373.501 
  -999.25 0.0641 0.0641 0.2477 -999.25 90.9997 0.24219 -999.25 2.569 2.6217 
  2.6217 2.5318 2.787 2.915 
13374.001 
  -999.25 0.0717 0.0717 0.2422 -999.25 88.0189 0.24219 -999.25 2.569 2.6031 
  2.6031 2.5404 2.787 2.915 
13374.501 
  -999.25 0.0624 0.0624 0.2355 -999.25 85.3977 0.24219 -999.25 2.569 2.5828 
  2.5828 2.5551 2.787 2.915 
13375.001 
  -999.25 0.0544 0.0544 0.2249 -999.25 83.1911 0.24219 -999.25 2.569 2.5745 
  2.5745 2.568 2.787 2.915 
13375.501 
  -999.25 0.048 0.048 0.2106 -999.25 82.3998 0.24219 -999.25 2.569 2.5794 
  2.5794 2.5687 2.787 2.915 
13376.001 
  -999.25 0.0377 0.0377 0.1938 -999.25 80.2021 0.24219 -999.25 2.569 2.5805 
  2.5805 2.5664 2.787 2.915 
13376.501 
  -999.25 0.0296 0.0296 0.1806 -999.25 77.306 0.24219 -999.25 2.569 2.5987 
  2.5987 2.5685 2.787 2.915 
13377.001 
  -999.25 0.0166 0.0166 0.1888 -999.25 73.9217 0.24219 -999.25 2.569 2.6089 
  2.6089 2.5899 2.787 2.915 
13377.501 
  -999.25 0.0123 0.0123 0.1926 -999.25 71.2497 0.24219 -999.25 2.569 2.6231 
  2.6231 2.6027 2.787 2.915 
13378.001 
  -999.25 -999.25 0.004 -999.25 -999.25 68.4333 0.24219 -999.25 2.569 2.61 
  -999.25 -999.25 2.787 2.915 
13378.501 
  -999.25 -999.25 0.004 -999.25 -999.25 65.6119 0.24219 -999.25 2.569 2.61 
  -999.25 -999.25 2.787 2.915 
13379.001 
  -999.25 -999.25 0.004 -999.25 -999.25 64.3408 0.24219 -999.25 2.569 2.61 
  -999.25 -999.25 2.787 2.915 
13379.501 
  -999.25 -999.25 0.004 -999.25 -999.25 63.6638 0.24219 -999.25 2.569 2.61 
  -999.25 -999.25 2.787 2.915 
13380.001 
  -999.25 -999.25 0.004 -999.25 -999.25 63.3004 0.24219 -999.25 2.569 2.61 
  -999.25 -999.25 2.787 2.915 
13380.501 
  -999.25 -999.25 0.004 -999.25 -999.25 64.4648 0.24219 -999.25 2.569 2.61 
  -999.25 -999.25 2.787 2.915 
13381.001 
  -999.25 -999.25 0.004 -999.25 -999.25 68.4363 0.24219 -999.25 2.569 2.61 
  -999.25 -999.25 2.787 2.915 
13381.501 
  -999.25 -999.25 0.004 -999.25 -999.25 72.3708 0.24219 -999.25 2.569 2.61 
  -999.25 -999.25 2.787 2.915 
13382.001 
  -999.25 -999.25 0.004 -999.25 -999.25 73.748 0.24219 -999.25 2.569 2.61 
  -999.25 -999.25 2.787 2.915 
13382.501 
  -999.25 -999.25 0.004 -999.25 -999.25 71.854 0.24219 -999.25 2.569 2.61 
  -999.25 -999.25 2.787 2.915 
13383.001 
  -999.25 -999.25 0.004 -999.25 -999.25 71.854 0.24219 -999.25 2.569 2.61 
  -999.25 -999.25 2.787 2.915 
13383.501 
  -999.25 -999.25 0.004 -999.25 -999.25 71.854 0.24219 -999.25 2.569 2.61 
  -999.25 -999.25 2.787 2.915 
13384.001 
  -999.25 -999.25 0.004 -999.25 -999.25 71.854 0.24219 -999.25 2.569 2.61 
  -999.25 -999.25 2.787 2.915 
13384.501 
  -999.25 -999.25 0.004 -999.25 -999.25 71.854 0.24219 -999.25 2.569 2.61 
  -999.25 -999.25 2.787 2.915 
13385.001 
  -999.25 -999.25 0.004 -999.25 -999.25 71.854 0.24219 -999.25 2.569 2.61 
  -999.25 -999.25 2.787 2.915 
13385.501 
  -999.25 -999.25 0.004 -999.25 -999.25 71.854 0.24219 -999.25 2.569 2.61 
  -999.25 -999.25 2.787 2.915 
13386.001 
  -999.25 -999.25 0.004 -999.25 -999.25 71.854 0.24219 -999.25 2.569 2.61 
  -999.25 -999.25 2.787 2.915 
13386.501 
  -999.25 -999.25 0.004 -999.25 -999.25 71.854 0.24219 -999.25 2.569 2.61 
  -999.25 -999.25 2.787 2.915 
13387.001 
  -999.25 -999.25 0.004 -999.25 -999.25 71.854 0.24219 -999.25 2.569 2.61 
  -999.25 -999.25 2.787 2.915 
13387.501 
  -999.25 -999.25 0.004 -999.25 -999.25 71.854 0.24219 -999.25 2.569 2.61 
  -999.25 -999.25 2.787 2.915 
13388.001 
  -999.25 -999.25 0.004 -999.25 -999.25 71.854 0.24219 -999.25 2.569 2.61 
  -999.25 -999.25 2.787 2.915 
13388.501 
  -999.25 -999.25 0.004 -999.25 -999.25 71.854 0.24219 -999.25 2.569 2.61 
  -999.25 -999.25 2.787 2.915 
13389.001 
  -999.25 -999.25 0.004 -999.25 -999.25 71.854 0.24219 -999.25 2.569 2.61 
  -999.25 -999.25 2.787 2.915 
13389.501 
  -999.25 -999.25 0.004 -999.25 -999.25 71.854 0.24219 -999.25 2.569 2.61 
  -999.25 -999.25 2.787 2.915 
13390.001 
  -999.25 -999.25 0.004 -999.25 -999.25 71.854 0.24219 -999.25 2.569 2.61 
  -999.25 -999.25 2.787 2.915 
13390.501 
  -999.25 -999.25 0.004 -999.25 -999.25 71.854 0.24219 -999.25 2.569 2.61 
  -999.25 -999.25 2.787 2.915 
13391.001 
  -999.25 -999.25 0.004 -999.25 -999.25 71.854 0.24219 -999.25 2.569 2.61 
  -999.25 -999.25 2.787 2.915 
13391.501 
  -999.25 -999.25 0.004 -999.25 -999.25 71.854 0.24219 -999.25 2.569 2.61 
  -999.25 -999.25 2.787 2.915 
13392.001 
  -999.25 -999.25 0.004 -999.25 -999.25 71.854 0.24219 -999.25 2.569 2.61 
  -999.25 -999.25 2.787 2.915 
13392.501 
  -999.25 -999.25 0.004 -999.25 -999.25 71.854 0.24219 -999.25 2.569 2.61 
  -999.25 -999.25 2.787 2.915 
13393.001 
  -999.25 -999.25 0.004 -999.25 -999.25 71.854 0.24219 -999.25 2.569 2.61 
  -999.25 -999.25 2.787 2.915 
13393.501 
  -999.25 -999.25 0.004 -999.25 -999.25 71.854 0.24219 -999.25 2.569 2.61 
  -999.25 -999.25 2.787 2.915 
13394.001 
  -999.25 -999.25 0.004 -999.25 -999.25 71.854 0.24219 -999.25 2.569 2.61 
  -999.25 -999.25 2.787 2.915 
13394.501 
  -999.25 -999.25 0.004 -999.25 -999.25 71.854 0.24219 -999.25 2.569 2.61 
  -999.25 -999.25 2.787 2.915 
13395.001 
  -999.25 -999.25 0.004 -999.25 -999.25 71.854 0.24219 -999.25 2.569 2.61 
  -999.25 -999.25 2.787 2.915 
13395.501 
  -999.25 -999.25 0.004 -999.25 -999.25 71.854 0.24219 -999.25 2.569 2.61 
  -999.25 -999.25 2.787 2.915 
13396.001 
  -999.25 -999.25 0.004 -999.25 -999.25 71.854 0.24219 -999.25 2.569 2.61 
  -999.25 -999.25 2.787 2.915 
13396.501 
  -999.25 -999.25 0.004 -999.25 -999.25 71.854 0.24219 -999.25 2.569 2.61 
  -999.25 -999.25 2.787 2.915 
13397.001 
  -999.25 -999.25 0.004 -999.25 -999.25 71.854 0.24219 -999.25 2.569 2.61 
  -999.25 -999.25 2.787 2.915 
13397.501 
  -999.25 -999.25 0.004 -999.25 -999.25 71.854 0.24219 -999.25 2.569 2.61 
  -999.25 -999.25 2.787 2.915 
13398.001 
  -999.25 -999.25 0.004 -999.25 -999.25 71.854 0.24219 -999.25 2.569 2.61 
  -999.25 -999.25 2.787 2.915 
13398.501 
  -999.25 -999.25 0.004 -999.25 -999.25 71.854 0.24219 -999.25 2.569 2.61 
  -999.25 -999.25 2.787 2.915 
13399.001 
  -999.25 -999.25 0.004 -999.25 -999.25 71.854 0.24219 -999.25 2.569 2.61 
  -999.25 -999.25 2.787 2.915 
13399.501 
  -999.25 -999.25 0.004 -999.25 -999.25 71.854 0.24219 -999.25 2.569 2.61 
  -999.25 -999.25 2.787 2.915 
13400.001 
  -999.25 -999.25 0.004 -999.25 -999.25 71.854 0.24219 -999.25 2.569 2.61 
  -999.25 -999.25 2.787 2.915 
13400.501 
  -999.25 -999.25 0.004 -999.25 -999.25 71.854 0.24219 -999.25 2.569 2.61 
  -999.25 -999.25 2.787 2.915 
