~Version Information
VERS.                2.00 :CWLS Log ASCII Standard
WRAP.                  NO :One line per depth step
#
~Well Information
#MNEM.UNIT               DATA                    DESCRIPTION OF MNEMONIC
#--- ---- ----------------------------------- -------------------------------
STRT.F                               8494.000 :START Depth
STOP.F                              13418.500 :STOP Depth
STEP.F                                  0.500 :STEP Length
NULL.                                -999.250 :NULL Value
DATE.                              2009-09-07 :LOG DATE
#
~Curve Information
#--- ---- ----------------------------------- -------------------------------
DEPTH.F                                        :
BVW .V/V                                      :Bound Volume Water
CARB_FLAG.UNITLESS                                     :Carbonate flag
COAL_FLAG.UNITLESS                                     :Coal flag
KLOGH.MD                                       :Calculated Horizontal Permeability From Logs
PHIF.V/V                                      :Final Porosity
SAND_FLAG.UNITLESS                                     :Sand Flag
SW  .V/V                                      :Water Saturation
VSH .V/V                                      :Volume of Shale
#
~ASCII data
# ...
11024.501 0.0568 0 0 0.001 0.056766 0 1 0.0845 
11025.001 0.0662 0 0 0.001 0.066176 0 1 0.0848 
11025.501 0.0741 0 0 0.001 0.074131 0 1 0.0928 
11026.001 0.0787 0 0 0.001 0.078747 0 1 0.1092 
11026.501 0.0766 0 0 0.001 0.076572 0 1 0.112 
11027.001 0.0693 0 0 0.001 0.069307 0 1 0.1068 
11027.501 0.0724 0 0 0.001 0.072407 0 1 0.0925 
11028.001 0.0605 0 0 0.001 0.06053 0 1 0.0854 
11028.501 0.0627 0 0 0.001 0.062666 0 1 0.0705 
11029.001 0.0585 0 0 0.001 0.058538 0 1 0.0631 
11029.501 0.0598 0 0 0.001 0.059761 0 1 0.0587 
11030.001 0.0616 0 0 0.001 0.061599 0 1 0.0583 
11030.501 0.0644 0 0 0.001 0.064384 0 1 0.0672 
11031.001 0.0687 0 0 0.001 0.068652 0 1 0.0641 
11031.501 0.0594 0 0 0.001 0.059414 0 1 0.0689 
11032.001 0.0466 0 0 0.001 0.046611 0 1 0.0778 
11032.501 0.0446 0 0 0.001 0.044565 0 1 0.093 
11033.001 0.0416 0 0 0.001 0.041583 0 1 0.1033 
11033.501 0.0407 0 0 0.001 0.040682 0 1 0.1006 
11034.001 0.0323 1 0 0.001 0.032297 0 1 0.0869 
11034.501 0.0317 1 0 0.001 0.031691 0 1 0.0852 
11035.001 0.0254 1 0 0.001 0.025432 0 1 0.0779 
11035.501 0.0289 1 0 0.001 0.028945 0 1 0.0886 
11036.001 0.0232 1 0 0.001 0.02315 0 1 0.091 
11036.501 0.0237 1 0 0.001 0.023679 0 1 0.1002 
11037.001 0.0235 1 0 0.001 0.023508 0 1 0.1003 
11037.501 0.0199 1 0 0.001 0.019862 0 1 0.0965 
11038.001 0.0229 1 0 0.001 0.022938 0 1 0.0877 
11038.501 0.0272 1 0 0.001 0.027183 0 1 0.0854 
11039.001 0.0369 0 0 0.001 0.036894 0 1 0.0918 
11039.501 0.0356 1 0 0.001 0.035619 0 1 0.1058 
11040.001 0.0335 1 0 0.001 0.033512 0 1 0.1111 
11040.501 0.0378 0 0 0.001 0.03781 0 1 0.1118 
11041.001 0.0356 1 0 0.001 0.035593 0 1 0.1069 
11041.501 0.0379 0 0 0.001 0.037927 0 1 0.0937 
11042.001 0.0358 1 0 0.001 0.035815 0 1 0.0816 
11042.501 0.045 0 0 0.001 0.044976 0 1 0.0761 
11043.001 0.0478 0 0 0.001 0.047766 0 1 0.0782 
11043.501 0.0484 0 0 0.001 0.048369 0 1 0.0864 
11044.001 0.0423 0 0 0.001 0.042265 0 1 0.0902 
11044.501 0.0396 0 0 0.001 0.039585 0 1 0.097 
11045.001 0.038 0 0 0.001 0.037977 0 1 0.0947 
11045.501 0.0467 0 0 0.001 0.046748 0 1 0.0971 
11046.001 0.0498 0 0 0.001 0.049791 0 1 0.1044 
11046.501 0.0497 0 0 0.001 0.049679 0 1 0.098 
11047.001 0.0414 0 0 0.001 0.041423 0 1 0.0928 
11047.501 0.0388 0 0 0.001 0.038767 0 1 0.0861 
11048.001 0.0379 0 0 0.001 0.037852 0 1 0.088 
11048.501 0.0433 0 0 0.001 0.043298 0 1 0.0801 
11049.001 0.0401 0 0 0.001 0.040106 0 1 0.0908 
11049.501 0.0388 0 0 0.001 0.038754 0 1 0.107 
11050.001 0.0346 1 0 0.001 0.034647 0 1 0.1213 
11050.501 0.033 1 0 0.001 0.032993 0 1 0.1239 
11051.001 0.0291 1 0 0.001 0.029095 0 1 0.1143 
11051.501 0.0298 1 0 0.001 0.029826 0 1 0.1107 
11052.001 0.0345 1 0 0.001 0.034548 0 1 0.1043 
11052.501 0.0451 0 0 0.001 0.045134 0 1 0.0985 
11053.001 0.0435 0 0 0.001 0.043509 0 1 0.0981 
11053.501 0.0529 0 0 0.001 0.052857 0 1 0.0923 
11054.001 0.0583 0 0 0.001 0.05827 0 1 0.0997 
11054.501 0.0614 0 0 0.001 0.061391 0 1 0.1046 
11055.001 0.0593 0 0 0.001 0.059276 0 1 0.1064 
11055.501 0.051 0 0 0.001 0.051007 0 1 0.0993 
11056.001 0.0483 0 0 0.001 0.048348 0 1 0.0987 
11056.501 0.0398 0 0 0.001 0.039823 0 1 0.0917 
11057.001 0.0365 0 0 0.001 0.036526 0 1 0.0926 
11057.501 0.0365 0 0 0.001 0.036524 0 1 0.094 
11058.001 0.0325 1 0 0.001 0.03246 0 1 0.1062 
11058.501 0.0363 0 0 0.001 0.036256 0 1 0.1179 
11059.001 0.0388 0 0 0.001 0.038812 0 1 0.1146 
11059.501 0.0397 0 0 0.001 0.039722 0 1 0.102 
11060.001 0.0425 0 0 0.001 0.042547 0 1 0.0987 
11060.501 0.049 0 0 0.001 0.048992 0 1 0.0985 
11061.001 0.0534 0 0 0.001 0.053416 0 1 0.1046 
11061.501 0.0473 0 0 0.001 0.047278 0 1 0.0893 
11062.001 0.0405 0 0 0.001 0.040452 0 1 0.0812 
11062.501 0.0425 0 0 0.001 0.042486 0 1 0.0858 
11063.001 0.0427 0 0 0.001 0.042668 0 1 0.0989 
11063.501 0.0429 0 0 0.001 0.042887 0 1 0.0985 
11064.001 0.0364 0 0 0.001 0.036394 0 1 0.1043 
11064.501 0.0327 1 0 0.001 0.032699 0 1 0.105 
11065.001 0.0327 1 0 0.001 0.032723 0 1 0.1038 
11065.501 0.0301 1 0 0.001 0.030067 0 1 0.0904 
11066.001 0.0335 1 0 0.001 0.033455 0 1 0.0872 
11066.501 0.0328 1 0 0.001 0.032838 0 1 0.0942 
11067.001 0.0417 0 0 0.001 0.041722 0 1 0.0916 
11067.501 0.0467 0 0 0.001 0.04665 0 1 0.0795 
11068.001 0.0514 0 0 0.001 0.051402 0 1 0.0677 
11068.501 0.0509 0 0 0.001 0.050885 0 1 0.0712 
11069.001 0.0481 0 0 0.001 0.048146 0 1 0.0783 
11069.501 0.0424 0 0 0.001 0.042363 0 1 0.0849 
11070.001 0.0427 0 0 0.001 0.042686 0 1 0.088 
11070.501 0.039 0 0 0.001 0.038989 0 1 0.0976 
11071.001 0.0409 0 0 0.001 0.040875 0 1 0.1003 
11071.501 0.0375 0 0 0.001 0.037492 0 1 0.0998 
11072.001 0.0408 0 0 0.001 0.04083 0 1 0.1002 
11072.501 0.0333 1 0 0.001 0.033294 0 1 0.1069 
11073.001 0.0316 1 0 0.001 0.031623 0 1 0.1118 
11073.501 0.03 1 0 0.001 0.030032 0 1 0.114 
11074.001 0.0294 1 0 0.001 0.029412 0 1 0.112 
11074.501 0.0292 1 0 0.001 0.029203 0 1 0.109 
11075.001 0.0306 1 0 0.001 0.030559 0 1 0.1051 
11075.501 0.0404 0 0 0.001 0.040402 0 1 0.1057 
11076.001 0.0382 0 0 0.001 0.038185 0 1 0.0987 
11076.501 0.0336 1 0 0.001 0.03355 0 1 0.0922 
11077.001 0.0231 1 0 0.001 0.023086 0 1 0.0795 
11077.501 0.0264 1 0 0.001 0.026366 0 1 0.0791 
11078.001 0.024 1 0 0.001 0.024025 0 1 0.0744 
11078.501 0.0256 1 0 0.001 0.025642 0 1 0.0746 
11079.001 0.0229 1 0 0.001 0.022874 0 1 0.077 
11079.501 0.0262 1 0 0.001 0.026156 0 1 0.0759 
11080.001 0.0275 1 0 0.001 0.027529 0 1 0.0842 
11080.501 0.0235 1 0 0.001 0.023505 0 1 0.0821 
11081.001 0.0236 1 0 0.001 0.023629 0 1 0.0833 
11081.501 0.0222 1 0 0.001 0.022221 0 1 0.0888 
11082.001 0.0251 1 0 0.001 0.025128 0 1 0.0918 
11082.501 0.0233 1 0 0.001 0.023298 0 1 0.0937 
11083.001 0.0232 1 0 0.001 0.023193 0 1 0.0838 
11083.501 0.0313 1 0 0.001 0.031322 0 1 0.084 
11084.001 0.0348 1 0 0.001 0.03482 0 1 0.0797 
11084.501 0.0364 0 0 0.001 0.036352 0 1 0.0852 
11085.001 0.0299 1 0 0.001 0.029861 0 1 0.0823 
11085.501 0.0355 1 0 0.001 0.035525 0 1 0.0799 
11086.001 0.032 1 0 0.001 0.032006 0 1 0.0755 
11086.501 0.0269 1 0 0.001 0.026883 0 1 0.0767 
11087.001 0.0198 1 0 0.001 0.019839 0 1 0.0787 
11087.501 0.0251 1 0 0.001 0.025125 0 1 0.077 
11088.001 0.0312 1 0 0.001 0.031166 0 1 0.0718 
11088.501 0.034 1 0 0.001 0.034016 0 1 0.0793 
11089.001 0.0334 1 0 0.001 0.033384 0 1 0.0861 
11089.501 0.03 1 0 0.001 0.030031 0 1 0.091 
11090.001 0.0229 1 0 0.001 0.022909 0 1 0.0854 
11090.501 0.0159 1 0 0.001 0.01589 0 1 0.0893 
11091.001 0.0171 1 0 0.001 0.017109 0 1 0.0999 
11091.501 0.0186 1 0 0.001 0.018594 0 1 0.107 
11092.001 0.027 1 0 0.001 0.027012 0 1 0.0939 
11092.501 0.028 1 0 0.001 0.028017 0 1 0.075 
11093.001 0.0303 1 0 0.001 0.030267 0 1 0.0707 
11093.501 0.0237 1 0 0.001 0.023731 0 1 0.0794 
11094.001 0.0171 1 0 0.001 0.017132 0 1 0.0967 
11094.501 0.0164 1 0 0.001 0.016397 0 1 0.1016 
11095.001 0.0308 1 0 0.001 0.030821 0 1 0.1087 
11095.501 0.0338 1 0 0.001 0.033813 0 1 0.0937 
11096.001 0.0282 1 0 0.001 0.028169 0 1 0.0871 
11096.501 0.0189 1 0 0.001 0.018929 0 1 0.0705 
11097.001 0.0186 1 0 0.001 0.018619 0 1 0.0794 
11097.501 0.0246 1 0 0.001 0.024601 0 1 0.0923 
11098.001 0.0191 1 0 0.001 0.019108 0 1 0.1065 
11098.501 0.0149 1 0 0.001 0.014909 0 1 0.1098 
11099.001 0.009 1 0 0.001 0.00903 0 1 0.1048 
11099.501 0.017 1 0 0.001 0.017035 0 1 0.0986 
11100.001 0.027 1 0 0.001 0.026982 0 1 0.0938 
11100.501 0.0313 1 0 0.001 0.031331 0 1 0.0853 
11101.001 0.0264 1 0 0.001 0.026417 0 1 0.0846 
11101.501 0.0163 1 0 0.001 0.016282 0 1 0.0879 
11102.001 0.0173 1 0 0.001 0.017301 0 1 0.1026 
11102.501 0.0212 1 0 0.001 0.021249 0 1 0.0948 
11103.001 0.0275 1 0 0.001 0.027512 0 1 0.085 
11103.501 0.0236 1 0 0.001 0.023649 0 1 0.0746 
11104.001 0.0116 1 0 0.001 0.011578 0 1 0.0729 
11104.501 0.0154 1 0 0.001 0.015384 0 1 0.0764 
11105.001 0.0169 1 0 0.001 0.016867 0 1 0.0736 
11105.501 0.0292 1 0 0.001 0.029171 0 1 0.0749 
11106.001 0.0261 1 0 0.001 0.026107 0 1 0.078 
11106.501 0.0303 1 0 0.001 0.030337 0 1 0.0844 
11107.001 0.0302 1 0 0.001 0.030233 0 1 0.0988 
11107.501 0.0319 1 0 0.001 0.031893 0 1 0.095 
11108.001 0.0332 1 0 0.001 0.033185 0 1 0.0884 
