~Version Information
VERS.                2.00 :CWLS Log ASCII Standard
WRAP.                 YES :Multiple lines per depth step
#
~Well Information
#MNEM.UNIT               DATA                    DESCRIPTION OF MNEMONIC
#--- ---- ----------------------------------- -------------------------------
STRT.F                                  0.000 :START Depth
STOP.F                              13418.500 :STOP Depth
STEP.F                                  0.500 :STEP Length
NULL.                                -999.250 :NULL Value
DATE.                              2009-09-07 :LOG DATE
#
~Curve Information
#--- ---- ----------------------------------- -------------------------------
DEPTH.F                                        :
CALI.IN                                       :Ultrasonic Caliper Average Diameter
DRHB.G/CC                                     :Bulk Density Correction  Bottom
DRHO.G/CC                                     :Bulk Density Correction
DRHU.G/CC                                     :Bulk Density Correction  Up
DT  .US/F                                     :Delta-T Compressional
GR  .GAPI                                     :Gamma Ray
NPHI.V/V                                      :Neutron Porosity
PEF .B/E                                      :Photoelectric Factor Bottom
RD  .OHMM                                     :Deep Resistivity
RHOB.G/CC                                     :Bulk Density
ROBB.G/CC                                     :Bulk Density  Bottom
ROBU.G/CC                                     :Bulk Density  Up
RS  .OHMM                                     :Shallow Resistivity
RT  .OHMM                                     :True Resistivity
#
~ASCII data
# ...
4491.500 
  8.88 -999.25 -999.25 -999.25 -999.25 51.6089 0.615014 69.4872 0.6957 1.7783 
  -999.25 -999.25 6.0159 46.8754 
4492.000 
  8.88 -999.25 -999.25 -999.25 -999.25 53.3168 0.615014 69.4872 0.8868 1.7783 
  -999.25 -999.25 1.1381 4.7634 
4492.500 
  8.88 -999.25 -999.25 -999.25 -999.25 52.1842 0.615014 69.4872 1.399 1.7783 
  -999.25 -999.25 1.1017 4.3302 
4493.000 
  8.88 -999.25 -999.25 -999.25 -999.25 44.6934 0.615014 69.4872 1.1949 1.7783 
  -999.25 -999.25 1.6729 11.9281 
4493.500 
  8.88 -999.25 -999.25 -999.25 -999.25 41.685 0.615014 69.4872 0.6491 1.7783 
  -999.25 -999.25 1.9102 0.5674 
4494.000 
  8.88 -999.25 -999.25 -999.25 -999.25 41.1936 0.615014 69.4872 1.5623 1.7783 
  -999.25 -999.25 2.2129 1.4899 
4494.500 
  8.88 -999.25 -999.25 -999.25 -999.25 42.6738 0.615014 69.4872 1.6701 1.7783 
  -999.25 -999.25 2.8135 1.8809 
4495.000 
  8.88 -999.25 -999.25 -999.25 -999.25 43.7585 0.615014 69.4872 1.7096 1.7783 
  -999.25 -999.25 3.496 2.2398 
4495.500 
  8.88 -999.25 -999.25 -999.25 -999.25 44.0462 0.615014 69.4872 1.7274 1.7783 
  -999.25 -999.25 4.7086 2.9382 
4496.000 
  8.88 -999.25 -999.25 -999.25 -999.25 41.1037 0.615014 69.4872 1.7634 1.7783 
  -999.25 -999.25 6.6193 4.034 
4496.500 
  8.88 -999.25 -999.25 -999.25 -999.25 42.5 0.615014 69.4872 1.8444 1.7783 
  -999.25 -999.25 9.0033 5.2042 
4497.000 
  8.88 -999.25 -999.25 -999.25 -999.25 52.364 0.615014 69.4872 1.9697 1.7783 
  -999.25 -999.25 13.2585 7.1799 
4497.500 
  8.88 -999.25 -999.25 -999.25 -999.25 67.058 0.615014 69.4872 2.19 1.7783 
  -999.25 -999.25 18.0785 9.6233 
4498.000 
  8.88 -999.25 -999.25 -999.25 -999.25 76.7242 0.615014 69.4872 2.4768 1.7783 
  -999.25 -999.25 21.9518 11.8953 
4498.500 
  8.88 -999.25 -999.25 -999.25 -999.25 81.7161 0.615014 69.4872 2.7899 1.7783 
  -999.25 -999.25 24.8059 15.0783 
4499.000 
  8.88 -999.25 -999.25 -999.25 -999.25 83.6937 0.615014 69.4872 3.0091 1.7783 
  -999.25 -999.25 24.9792 18.3878 
4499.500 
  8.88 -999.25 -999.25 -999.25 -999.25 85.1978 0.615014 69.4872 3.2382 1.7783 
  -999.25 -999.25 23.4466 20.9836 
4500.000 
  8.88 -999.25 -999.25 -999.25 -999.25 87.6728 0.615014 69.4872 3.553 1.7783 
  -999.25 -999.25 20.596 23.0685 
4500.500 
  8.88 -999.25 -999.25 -999.25 -999.25 88.4399 0.615014 69.4872 3.8011 1.7783 
  -999.25 -999.25 19.6303 23.1246 
4501.000 
  8.88 -999.25 -999.25 -999.25 -999.25 89.165 0.615014 69.4872 4.0015 1.7783 
  -999.25 -999.25 18.4149 22.8029 
4501.500 
  8.88 -999.25 -999.25 -999.25 -999.25 85.3177 0.615014 69.4872 4.0773 1.7783 
  -999.25 -999.25 16.7179 20.9812 
4502.000 
  8.88 -999.25 -999.25 -999.25 -999.25 87.2054 0.615014 69.4872 4.0407 1.7783 
  -999.25 -999.25 16.3966 19.3677 
4502.500 
  8.88 -999.25 -999.25 -999.25 -999.25 87.5589 0.615014 69.4872 4.0896 1.7783 
  -999.25 -999.25 16.0921 20.0145 
4503.000 
  8.88 -999.25 -999.25 -999.25 -999.25 91.2744 0.615014 69.4872 4.0605 1.7783 
  -999.25 -999.25 15.0409 16.8635 
4503.500 
  8.88 -999.25 -999.25 -999.25 -999.25 90.6572 0.615014 69.4872 3.9823 1.7783 
  -999.25 -999.25 14.5163 16.513 
4504.000 
  8.88 -999.25 -999.25 -999.25 -999.25 89.7822 0.615014 69.4872 3.9883 1.7783 
  -999.25 -999.25 12.777 15.1596 
4504.500 
  8.88 -999.25 -999.25 -999.25 -999.25 86.66 0.615014 69.4872 3.8393 1.7783 
  -999.25 -999.25 11.0682 13.6715 
4505.000 
  8.88 -999.25 -999.25 -999.25 -999.25 86.702 0.615014 69.4872 3.7558 1.7783 
  -999.25 -999.25 10.1021 11.0044 
4505.500 
  8.88 -999.25 -999.25 -999.25 -999.25 88.1163 0.615014 69.4872 3.8365 1.7783 
  -999.25 -999.25 9.2339 7.8933 
4506.000 
  8.88 -999.25 -999.25 -999.25 -999.25 94.7262 0.615014 69.4872 4.0249 1.7783 
  -999.25 -999.25 6.8044 6.4444 
4506.500 
  8.88 -999.25 -999.25 -999.25 -999.25 94.9239 0.615014 69.4872 4.0207 1.7783 
  -999.25 -999.25 6.0132 6.3155 
4507.000 
  8.88 -999.25 -999.25 -999.25 -999.25 97.4229 0.615014 69.4872 3.8539 1.7783 
  -999.25 -999.25 5.2178 6.023 
4507.500 
  8.88 -999.25 -999.25 -999.25 -999.25 94.9479 0.615014 69.4872 3.9474 1.7783 
  -999.25 -999.25 4.6074 5.035 
4508.000 
  8.88 -999.25 -999.25 -999.25 -999.25 97.5607 0.615014 69.4872 4.1525 1.7783 
  -999.25 -999.25 4.2315 4.2491 
4508.500 
  8.88 -999.25 -999.25 -999.25 -999.25 95.4573 0.615014 69.4872 4.72 1.7783 
  -999.25 -999.25 3.7853 3.263 
4509.000 
  8.88 -999.25 -999.25 -999.25 -999.25 94.4266 0.615014 69.4872 4.7481 1.7783 
  -999.25 -999.25 3.5625 4.0498 
4509.500 
  8.88 -999.25 -999.25 -999.25 -999.25 94.864 0.615014 69.4872 5.1545 1.7783 
  -999.25 -999.25 3.5036 3.8743 
4510.000 
  8.88 -999.25 -999.25 -999.25 -999.25 97.327 0.615014 69.4872 5.5883 1.7783 
  -999.25 -999.25 3.5485 4.8976 
4510.500 
  8.88 -999.25 -999.25 -999.25 -999.25 98.8072 0.615014 69.4872 6.4353 1.7783 
  -999.25 -999.25 3.6406 4.5897 
4511.000 
  8.88 -999.25 -999.25 -999.25 -999.25 94.846 0.615014 69.4872 6.9758 1.7783 
  -999.25 -999.25 4.2902 6.1583 
4511.500 
  8.88 -999.25 -999.25 -999.25 -999.25 85.7551 0.615014 69.4872 7.5031 1.7783 
  -999.25 -999.25 5.4623 8.1967 
4512.000 
  8.88 -999.25 -999.25 -999.25 -999.25 72.4155 0.615014 69.4872 7.0779 1.7783 
  -999.25 -999.25 6.6425 10.6984 
4512.500 
  8.88 -999.25 -999.25 -999.25 -999.25 60.4541 0.615014 69.4872 7.0186 1.7783 
  -999.25 -999.25 9.0766 15.7288 
4513.000 
  8.88 -999.25 -999.25 -999.25 -999.25 56.2113 0.615014 69.4872 7.3932 1.7783 
  -999.25 -999.25 12.5086 19.413 
4513.500 
  8.88 -999.25 -999.25 -999.25 -999.25 57.8593 0.615014 69.4872 8.0822 1.7783 
  -999.25 -999.25 18.0759 24.7769 
4514.000 
  8.88 -999.25 -999.25 -999.25 -999.25 61.5807 0.615014 69.4872 8.5824 1.7783 
  -999.25 -999.25 25.723 28.8726 
4514.500 
  8.88 -999.25 -999.25 -999.25 -999.25 63.0789 0.615014 69.4872 9.3622 1.7783 
  -999.25 -999.25 30.1231 30.2117 
4515.000 
  8.88 -999.25 -999.25 -999.25 -999.25 65.9074 0.615014 69.4872 10.335 1.7783 
  -999.25 -999.25 31.1991 30.1767 
4515.500 
  8.88 -999.25 -999.25 -999.25 -999.25 71.5765 0.615014 69.4872 11.1608 1.7783 
  -999.25 -999.25 28.9373 31.163 
4516.000 
  8.88 -999.25 -999.25 -999.25 -999.25 75.6515 0.615014 69.4872 11.2328 1.7783 
  -999.25 -999.25 26.9662 30.8959 
4516.500 
  8.88 -999.25 -999.25 -999.25 -999.25 80.134 0.615014 69.4872 11.1952 1.7783 
  -999.25 -999.25 23.8858 27.2592 
4517.000 
  8.88 -999.25 -999.25 -999.25 -999.25 80.0381 0.615014 69.4872 11.0308 1.7783 
  -999.25 -999.25 22.4483 23.3595 
4517.500 
  8.88 -999.25 -999.25 -999.25 -999.25 83.4839 0.615014 69.4872 10.9219 1.7783 
  -999.25 -999.25 20.3262 21.2661 
4518.000 
  8.88 -999.25 -999.25 -999.25 -999.25 82.9386 0.615014 69.4872 10.2853 1.7783 
  -999.25 -999.25 22.6714 21.2453 
4518.500 
  8.88 -999.25 -999.25 -999.25 -999.25 83.0405 0.615014 69.4872 9.7496 1.7783 
  -999.25 -999.25 18.9407 22.6461 
4519.000 
  8.88 -999.25 -999.25 -999.25 -999.25 82.3333 0.615014 69.4872 3.4657 1.7783 
  -999.25 -999.25 14.7125 16.9645 
4519.500 
  8.88 -999.25 -999.25 -999.25 -999.25 84.0113 0.615014 69.4872 3.2068 1.7783 
  -999.25 -999.25 13.7042 20.0833 
4520.000 
  8.88 -999.25 -999.25 -999.25 -999.25 83.7836 0.615014 69.4872 3.0719 1.7783 
  -999.25 -999.25 11.0388 23.6778 
4520.500 
  8.88 -999.25 -999.25 -999.25 -999.25 82.1655 0.615014 69.4872 3.0717 1.7783 
  -999.25 -999.25 13.029 49.9421 
4521.000 
  8.88 -999.25 -999.25 -999.25 -999.25 80.2539 0.615014 69.4872 3.2055 1.7783 
  -999.25 -999.25 60.394 5000 
4521.500 
  8.88 -999.25 -999.25 -999.25 -999.25 81.6022 0.615014 69.4872 2.935 1.7783 
  -999.25 -999.25 25.4272 108.693 
4522.000 
  8.88 -999.25 -999.25 -999.25 -999.25 85.042 0.615014 69.4872 2.5217 1.7783 
  -999.25 -999.25 11.138 19.1483 
4522.500 
  8.88 -999.25 -999.25 -999.25 -999.25 94.0191 0.615014 69.4872 3.7394 1.7783 
  -999.25 -999.25 159.829 5000 
4523.000 
  8.88 -999.25 -999.25 -999.25 -999.25 102.505 0.615014 69.4872 6.4117 1.7783 
  -999.25 -999.25 5000 5000 
4523.500 
  8.88 -999.25 -999.25 -999.25 -999.25 107.467 0.615014 69.4872 7.3767 1.7783 
  -999.25 -999.25 5000 5000 
4524.000 
  8.88 -999.25 -999.25 -999.25 -999.25 104.41 0.615014 69.4872 7.217 1.7783 
  -999.25 -999.25 5000 5000 
