~Version Information
VERS.                2.00 :CWLS Log ASCII Standard
WRAP.                  NO :One line per depth step
#
~Well Information
#MNEM.UNIT               DATA                    DESCRIPTION OF MNEMONIC
#--- ---- ----------------------------------- -------------------------------
STRT.F                               8494.000 :START Depth
STOP.F                              13418.500 :STOP Depth
STEP.F                                  0.500 :STEP Length
NULL.                                -999.250 :NULL Value
DATE.                              2009-09-07 :LOG DATE
#
~Curve Information
#--- ---- ----------------------------------- -------------------------------
DEPTH.F                                        :
BVW .V/V                                      :Bound Volume Water
CARB_FLAG.UNITLESS                                     :Carbonate flag
COAL_FLAG.UNITLESS                                     :Coal flag
KLOGH.MD                                       :Calculated Horizontal Permeability From Logs
PHIF.V/V                                      :Final Porosity
SAND_FLAG.UNITLESS                                     :Sand Flag
SW  .V/V                                      :Water Saturation
VSH .V/V                                      :Volume of Shale
#
~ASCII data
# ...
11360.501 0.0896 0 0 0.001 0.089592 0 1 0.0994 
11361.001 0.0979 0 0 0.001 0.097924 0 1 0.0859 
11361.501 0.0995 0 0 0.001 0.099532 0 1 0.0881 
11362.001 0.0889 0 0 0.001 0.088889 0 1 0.0976 
11362.501 0.0814 0 0 0.001 0.081397 0 1 0.1118 
11363.001 0.0851 0 0 0.001 0.085064 0 1 0.1179 
11363.501 0.0891 0 0 0.001 0.089142 0 1 0.1209 
11364.001 0.1007 0 0 0.001 0.100736 1 1 0.1246 
11364.501 0.1004 0 0 0.001 0.100413 1 1 0.1277 
11365.001 0.0958 0 0 0.001 0.095769 0 1 0.1311 
11365.501 0.0897 0 0 0.001 0.089691 0 1 0.1289 
11366.001 0.0836 0 0 0.001 0.083643 0 1 0.1218 
11366.501 0.0956 0 0 0.001 0.095555 0 1 0.1102 
11367.001 0.1008 0 0 0.001 0.100808 1 1 0.1047 
11367.501 0.1115 0 0 0.001 0.111527 1 1 0.1029 
11368.001 0.1144 0 0 0.001 0.114406 1 1 0.097 
11368.501 0.1226 0 0 0.001 0.122597 1 1 0.0861 
11369.001 0.1239 0 0 0.001 0.123912 1 1 0.0787 
11369.501 0.1207 0 0 0.001 0.120692 1 1 0.0873 
11370.001 0.1151 0 0 0.001 0.11514 1 1 0.0761 
11370.501 0.1173 0 0 0.001 0.11731 1 1 0.0751 
11371.001 0.1205 0 0 0.001 0.120501 1 1 0.075 
11371.501 0.1254 0 0 0.001 0.125363 1 1 0.087 
11372.001 0.1208 0 0 0.001 0.120777 1 1 0.0948 
11372.501 0.1179 0 0 0.001 0.117928 1 1 0.0986 
11373.001 0.1131 0 0 0.001 0.113092 1 1 0.1015 
11373.501 0.1095 0 0 0.001 0.109491 1 1 0.1032 
11374.001 0.0984 0 0 0.001 0.098411 0 1 0.0952 
11374.501 0.0879 0 0 0.001 0.087879 0 1 0.0874 
11375.001 0.0922 0 0 0.001 0.092205 0 1 0.0804 
11375.501 0.1036 0 0 0.001 0.103562 1 1 0.0839 
11376.001 0.1147 0 0 0.001 0.114672 1 1 0.0878 
11376.501 0.1088 0 0 0.001 0.108844 1 1 0.0858 
11377.001 0.1002 0 0 0.001 0.100236 1 1 0.0885 
11377.501 0.095 0 0 0.001 0.095045 0 1 0.0902 
11378.001 0.1047 0 0 0.001 0.104657 1 1 0.0979 
11378.501 0.1106 0 0 0.001 0.110555 1 1 0.0945 
11379.001 0.1111 0 0 0.001 0.111098 1 1 0.0888 
11379.501 0.0995 0 0 0.001 0.099512 0 1 0.0733 
11380.001 0.0987 0 0 0.001 0.098681 0 1 0.0661 
11380.501 0.1057 0 0 0.001 0.105726 1 1 0.077 
11381.001 0.1091 0 0 0.001 0.109079 1 1 0.0802 
11381.501 0.11 0 0 0.001 0.10997 1 1 0.0852 
11382.001 0.1019 0 0 0.001 0.101939 1 1 0.0909 
11382.501 0.1034 0 0 0.001 0.103374 1 1 0.1088 
11383.001 0.1057 0 0 0.001 0.105711 1 1 0.1048 
11383.501 0.1136 0 0 0.001 0.113646 1 1 0.1079 
11384.001 0.1197 0 0 0.001 0.119674 1 1 0.1064 
11384.501 0.1119 0 0 0.001 0.11191 1 1 0.1103 
11385.001 0.1065 0 0 0.001 0.106545 1 1 0.1041 
11385.501 0.0995 0 0 0.001 0.099478 0 1 0.1029 
11386.001 0.1003 0 0 0.001 0.100333 1 1 0.1181 
11386.501 0.0919 0 0 0.001 0.091919 0 1 0.1289 
11387.001 0.0905 0 0 0.001 0.090451 0 1 0.1408 
11387.501 0.0902 0 0 0.001 0.09017 0 1 0.141 
11388.001 0.1003 0 0 0.001 0.100269 1 1 0.1376 
11388.501 0.1038 0 0 0.001 0.103771 1 1 0.1319 
11389.001 0.1106 0 0 0.001 0.110636 1 1 0.1274 
11389.501 0.1125 0 0 0.001 0.112495 1 1 0.1154 
11390.001 0.1162 0 0 0.001 0.116245 1 1 0.1078 
11390.501 0.1182 0 0 0.001 0.118158 1 1 0.1124 
11391.001 0.1153 0 0 0.001 0.115255 1 1 0.1221 
11391.501 0.1137 0 0 0.001 0.113706 1 1 0.1215 
11392.001 0.1175 0 0 0.001 0.117476 1 1 0.1135 
11392.501 0.1128 0 0 0.001 0.11275 1 1 0.1126 
11393.001 0.1023 0 0 0.001 0.102349 1 1 0.1154 
11393.501 0.0854 0 0 0.001 0.085368 0 1 0.1121 
11394.001 0.082 0 0 0.001 0.082029 0 1 0.115 
11394.501 0.0857 0 0 0.001 0.085734 0 1 0.1212 
11395.001 0.0973 0 0 0.001 0.097344 0 1 0.1319 
11395.501 0.0972 0 0 0.001 0.097228 0 1 0.1307 
11396.001 0.102 0 0 0.001 0.102042 1 1 0.125 
11396.501 0.1069 0 0 0.001 0.106863 1 1 0.1159 
11397.001 0.1149 0 0 0.001 0.114925 1 1 0.1132 
11397.501 0.1154 0 0 0.001 0.115428 1 1 0.1094 
11398.001 0.1152 0 0 0.001 0.115167 1 1 0.1044 
11398.501 0.12 0 0 0.001 0.11998 1 1 0.095 
11399.001 0.1231 0 0 0.001 0.123078 1 1 0.093 
11399.501 0.1136 0 0 0.001 0.113592 1 1 0.0901 
11400.001 0.1028 0 0 0.001 0.102781 1 1 0.1016 
11400.501 0.0975 0 0 0.001 0.097453 0 1 0.098 
11401.001 0.0985 0 0 0.001 0.098523 0 1 0.0969 
11401.501 0.1041 0 0 0.001 0.104124 1 1 0.08 
11402.001 0.102 0 0 0.001 0.102 1 1 0.0822 
11402.501 0.0977 0 0 0.001 0.097665 0 1 0.0925 
11403.001 0.0909 0 0 0.001 0.090936 0 1 0.1103 
11403.501 0.0891 0 0 0.001 0.08906 0 1 0.1195 
11404.001 0.0943 0 0 0.001 0.094304 0 1 0.1163 
11404.501 0.0966 0 0 0.001 0.096569 0 1 0.1142 
11405.001 0.0987 0 0 0.001 0.098651 0 1 0.106 
11405.501 0.0981 0 0 0.001 0.098146 0 1 0.1012 
11406.001 0.0971 0 0 0.001 0.097098 0 1 0.1003 
11406.501 0.0919 0 0 0.001 0.091865 0 1 0.1099 
11407.001 0.0834 0 0 0.001 0.083437 0 1 0.1096 
11407.501 0.0818 0 0 0.001 0.081804 0 1 0.1037 
11408.001 0.0791 0 0 0.001 0.079121 0 1 0.1066 
11408.501 0.0784 0 0 0.001 0.078354 0 1 0.119 
11409.001 0.0807 0 0 0.001 0.080669 0 1 0.1202 
11409.501 0.0855 0 0 0.001 0.085548 0 1 0.1082 
11410.001 0.0847 0 0 0.001 0.084653 0 1 0.0967 
11410.501 0.0838 0 0 0.001 0.083788 0 1 0.0921 
11411.001 0.0839 0 0 0.001 0.083865 0 1 0.1032 
11411.501 0.0862 0 0 0.001 0.086173 0 1 0.1138 
11412.001 0.0843 0 0 0.001 0.084299 0 1 0.1263 
11412.501 0.0864 0 0 0.001 0.086368 0 1 0.1189 
11413.001 0.0869 0 0 0.001 0.086875 0 1 0.1245 
11413.501 0.0815 0 0 0.001 0.081502 0 1 0.119 
11414.001 0.0754 0 0 0.001 0.075369 0 1 0.1242 
11414.501 0.0752 0 0 0.001 0.075205 0 1 0.1322 
11415.001 0.0726 0 0 0.001 0.072611 0 1 0.1423 
11415.501 0.0762 0 0 0.001 0.076205 0 1 0.1499 
11416.001 0.067 0 0 0.001 0.067027 0 1 0.1443 
11416.501 0.0715 0 0 0.001 0.071504 0 1 0.1444 
11417.001 0.0641 0 0 0.001 0.064117 0 1 0.1361 
11417.501 0.081 0 0 0.001 0.080955 0 1 0.1376 
11418.001 0.0885 0 0 0.001 0.088501 0 1 0.1421 
11418.501 0.1013 0 0 0.001 0.101342 1 1 0.1583 
11419.001 0.0948 0 0 0.001 0.09479 0 1 0.1536 
11419.501 0.0904 0 0 0.001 0.090372 0 1 0.1478 
11420.001 0.09 0 0 0.001 0.089957 0 1 0.1229 
11420.501 0.0891 0 0 0.001 0.089109 0 1 0.1104 
11421.001 0.095 0 0 0.001 0.094974 0 1 0.1006 
11421.501 0.0985 0 0 0.001 0.098527 0 1 0.1128 
11422.001 0.1097 0 0 0.001 0.10967 1 1 0.1133 
11422.501 0.1179 0 0 0.001 0.117945 1 1 0.1064 
11423.001 0.1185 0 0 0.001 0.118534 1 1 0.0947 
11423.501 0.1144 0 0 0.001 0.114407 1 1 0.1041 
11424.001 0.1048 0 0 0.001 0.104752 1 1 0.1108 
11424.501 0.1029 0 0 0.001 0.102948 1 1 0.1187 
11425.001 0.0999 0 0 0.001 0.099946 0 1 0.1107 
11425.501 0.1014 0 0 0.001 0.101441 1 1 0.1153 
11426.001 0.1042 0 0 0.001 0.104221 1 1 0.1149 
11426.501 0.1065 0 0 0.001 0.106494 1 1 0.1225 
11427.001 0.1072 0 0 0.001 0.107182 1 1 0.1287 
11427.501 0.1051 0 0 0.001 0.105112 1 1 0.1232 
11428.001 0.1036 0 0 0.001 0.10357 1 1 0.1117 
11428.501 0.1025 0 0 0.001 0.102459 1 1 0.1035 
11429.001 0.0961 0 0 0.001 0.096062 0 1 0.1017 
11429.501 0.0937 0 0 0.001 0.09372 0 1 0.1075 
11430.001 0.088 0 0 0.001 0.087971 0 1 0.1105 
11430.501 0.0898 0 0 0.001 0.089781 0 1 0.1174 
11431.001 0.0903 0 0 0.001 0.09025 0 1 0.1229 
11431.501 0.0923 0 0 0.001 0.092282 0 1 0.1188 
11432.001 0.0884 0 0 0.001 0.088442 0 1 0.1281 
11432.501 0.0847 0 0 0.001 0.084722 0 1 0.1243 
11433.001 0.0865 0 0 0.001 0.086511 0 1 0.1269 
11433.501 0.0865 0 0 0.001 0.086514 0 1 0.1176 
11434.001 0.0874 0 0 0.001 0.08738 0 1 0.1235 
11434.501 0.0867 0 0 0.001 0.086718 0 1 0.1077 
11435.001 0.0955 0 0 0.001 0.095492 0 1 0.1102 
11435.501 0.1056 0 0 0.001 0.1056 1 1 0.1082 
11436.001 0.1076 0 0 0.001 0.107628 1 1 0.1342 
11436.501 0.1061 0 0 0.001 0.106088 1 1 0.12 
11437.001 0.1073 0 0 0.001 0.107321 1 1 0.1061 
11437.501 0.1131 0 0 0.001 0.113143 1 1 0.0792 
11438.001 0.1186 0 0 0.001 0.118595 1 1 0.0836 
11438.501 0.12 0 0 0.001 0.11996 1 1 0.078 
11439.001 0.1236 0 0 0.001 0.123577 1 1 0.0775 
11439.501 0.1201 0 0 0.001 0.120118 1 1 0.0626 
11440.001 0.1183 0 0 0.001 0.118335 1 1 0.0631 
11440.501 0.1125 0 0 0.001 0.112504 1 1 0.0631 
11441.001 0.1117 0 0 0.001 0.111695 1 1 0.0649 
11441.501 0.1071 0 0 0.001 0.107127 1 1 0.0642 
11442.001 0.1017 0 0 0.001 0.101749 1 1 0.0678 
11442.501 0.0945 0 0 0.001 0.094516 0 1 0.0803 
11443.001 0.0965 0 0 0.001 0.096469 0 1 0.0977 
11443.501 0.0982 0 0 0.001 0.098206 0 1 0.1059 
11444.001 0.0898 0 0 0.001 0.0898 0 1 0.1158 
