~Version Information
VERS.                2.00 :CWLS Log ASCII Standard
WRAP.                  NO :One line per depth step
#
~Well Information
#MNEM.UNIT               DATA                    DESCRIPTION OF MNEMONIC
#--- ---- ----------------------------------- -------------------------------
STRT.F                               8494.000 :START Depth
STOP.F                              13418.500 :STOP Depth
STEP.F                                  0.500 :STEP Length
NULL.                                -999.250 :NULL Value
DATE.                              2009-09-07 :LOG DATE
#
~Curve Information
#--- ---- ----------------------------------- -------------------------------
DEPTH.F                                        :
BVW .V/V                                      :Bound Volume Water
CARB_FLAG.UNITLESS                                     :Carbonate flag
COAL_FLAG.UNITLESS                                     :Coal flag
KLOGH.MD                                       :Calculated Horizontal Permeability From Logs
PHIF.V/V                                      :Final Porosity
SAND_FLAG.UNITLESS                                     :Sand Flag
SW  .V/V                                      :Water Saturation
VSH .V/V                                      :Volume of Shale
#
~ASCII data
# ...
12369.001 0.0183 0 0 0.001 0.018313 0 1 0.1757 
12369.501 0.0213 0 0 0.001 0.021325 0 1 0.1774 
12370.001 0.0187 0 0 0.001 0.018735 0 1 0.1836 
12370.501 0.0147 0 0 0.001 0.014699 0 1 0.1991 
12371.001 0.0114 0 0 0.001 0.011386 0 1 0.209 
12371.501 0.0158 0 0 0.001 0.015783 0 1 0.2175 
12372.001 0.0192 0 0 0.001 0.019217 0 1 0.2054 
12372.501 0.0228 0 0 0.001 0.022831 0 1 0.2164 
12373.001 0.0278 0 0 0.001 0.027771 0 1 0.2535 
12373.501 0.0343 0 0 0.001 0.034277 0 1 0.3085 
12374.001 0.0381 0 0 0.001 0.038133 0 1 0.3476 
12374.501 0.0389 0 0 0.001 0.038855 0 1 0.3681 
12375.001 0.034 0 0 0.001 0.033976 0 1 0.3866 
12375.501 0.0373 0 0 0.001 0.037349 0 1 0.4015 
12376.001 0.0402 0 0 0.001 0.040181 0 1 0.4262 
12376.501 0.0472 0 0 0.001 0.047229 0 1 0.4195 
12377.001 0.0446 0 0 0.001 0.044578 0 1 0.4259 
12377.501 0.0453 0 0 0.001 0.045301 0 1 0.4231 
12378.001 0.0436 0 0 0.001 0.043614 0 1 0.4246 
12378.501 0.0454 0 0 0.001 0.045361 0 1 0.4346 
12379.001 0.0437 0 0 0.001 0.043675 0 1 0.4219 
12379.501 0.0444 0 0 0.001 0.044398 0 1 0.4322 
12380.001 0.0428 0 0 0.001 0.042831 0 1 0.3983 
12380.501 0.0442 0 0 0.001 0.044157 0 1 0.3893 
12381.001 0.0435 0 0 0.001 0.043494 0 1 0.3859 
12381.501 0.0405 0 0 0.001 0.040542 0 1 0.3909 
12382.001 0.0359 0 0 0.001 0.035904 0 1 0.3864 
12382.501 0.0331 0 0 0.001 0.033072 0 1 0.3683 
12383.001 0.0349 0 0 0.001 0.03488 0 1 0.3592 
12383.501 0.0349 0 0 0.001 0.03488 0 1 0.3557 
12384.001 0.0355 0 0 0.001 0.035542 0 1 0.3526 
12384.501 0.0369 0 0 0.001 0.036868 0 1 0.3461 
12385.001 0.0401 0 0 0.001 0.04012 0 1 0.3209 
12385.501 0.043 0 0 0.001 0.042952 0 1 0.2993 
12386.001 0.0447 0 0 0.001 0.044699 0 1 0.2858 
12386.501 0.0461 0 0 0.001 0.046145 0 1 0.2801 
12387.001 0.0434 0 0 0.001 0.043373 0 1 0.2838 
12387.501 0.0401 0 0 0.001 0.04012 0 1 0.2912 
12388.001 0.038 0 0 0.001 0.038012 0 1 0.3076 
12388.501 0.0408 0 0 0.001 0.040783 0 1 0.3152 
12389.001 0.0446 0 0 0.001 0.044578 0 1 0.3288 
12389.501 0.0498 0 0 0.001 0.049819 0 1 0.3382 
12390.001 0.052 0 0 0.001 0.051988 0 1 0.3551 
12390.501 0.0533 0 0 0.001 0.053253 0 1 0.3735 
12391.001 0.0514 0 0 0.001 0.051446 0 1 0.3909 
12391.501 0.0516 0 0 0.001 0.051566 0 1 0.406 
12392.001 0.0563 0 0 0.001 0.056265 0 1 0.4155 
12392.501 0.056 0 0 0.001 0.055964 0 1 0.4316 
12393.001 0.0613 0 0 0.001 0.061265 0 1 0.4363 
12393.501 0.0571 0 0 0.001 0.057108 0 1 0.4452 
12394.001 0.0603 0 0 0.001 0.060301 0 1 0.4494 
12394.501 0.0596 0 0 0.001 0.059578 0 1 0.4665 
12395.001 0.0567 0 0 0.001 0.056747 0 1 0.4699 
12395.501 0.0519 0 0 0.001 0.051867 0 1 0.4843 
12396.001 0.0451 0 0 0.001 0.045121 0 1 0.4817 
12396.501 0.047 0 0 0.001 0.046988 0 1 0.4715 
12397.001 0.0513 0 0 0.001 0.051265 0 1 0.43 
12397.501 0.0581 0 0 0.001 0.058133 0 1 0.3838 
12398.001 0.0603 0 0 0.001 0.060301 0 1 0.3366 
12398.501 0.0586 0 0 0.001 0.058614 0 1 0.3165 
12399.001 0.0583 0 0 0.001 0.058313 0 1 0.3147 
12399.501 0.0604 0 0 0.001 0.060422 0 1 0.3317 
12400.001 0.0629 0 0 0.001 0.062892 0 1 0.3515 
12400.501 0.0602 0 0 0.001 0.060181 0 1 0.3677 
12401.001 0.061 0 0 0.001 0.061024 0 1 0.3859 
12401.501 0.0607 0 0 0.001 0.060663 0 1 0.4062 
12402.001 0.0632 0 0 0.001 0.063193 0 1 0.431 
12402.501 0.0617 0 0 0.001 0.061687 0 1 0.4447 
12403.001 0.0577 0 0 0.001 0.057651 0 1 0.4606 
12403.501 0.0542 0 0 0.001 0.054217 0 1 0.4591 
12404.001 0.054 0 0 0.001 0.053976 0 1 0.4832 
12404.501 0.0558 0 0 0.001 0.055783 0 1 0.4886 
12405.001 0.0564 0 0 0.001 0.056386 0 1 0.5031 
12405.501 0.0534 0 0 0.001 0.053374 0 1 0.4928 
12406.001 0.0539 0 0 0.001 0.053855 0 1 0.4976 
12406.501 0.0549 0 0 0.001 0.05494 0 1 0.4992 
12407.001 0.0546 0 0 0.001 0.054578 0 1 0.5025 
12407.501 0.0533 0 0 0.001 0.053313 0 1 0.4964 
12408.001 0.056 0 0 0.001 0.056024 0 1 0.4956 
12408.501 0.0595 0 0 0.001 0.059458 0 1 0.4986 
12409.001 0.0625 0 0 0.001 0.06247 0 1 0.5154 
12409.501 0.0595 0 0 0.001 0.059518 0 1 0.5209 
12410.001 0.062 0 0 0.001 0.062048 0 1 0.5361 
12410.501 0.0604 0 0 0.001 0.060422 0 1 0.5283 
12411.001 0.0617 0 0 0.001 0.061687 0 1 0.5314 
12411.501 0.0578 0 0 0.001 0.057831 0 1 0.5224 
12412.001 0.0611 0 0 0.001 0.061084 0 1 0.513 
12412.501 0.0616 0 0 0.001 0.061627 0 1 0.4924 
12413.001 0.0625 0 0 0.001 0.06247 0 1 0.4603 
12413.501 0.0596 0 0 0.001 0.059638 0 1 0.4182 
12414.001 0.0588 0 0 0.001 0.058795 0 1 0.3826 
12414.501 0.0594 0 0 0.001 0.059398 0 1 0.3529 
12415.001 0.063 0 0 0.001 0.063012 0 1 0.3499 
12415.501 0.0655 0 0 0.001 0.065542 0 1 0.3536 
12416.001 0.0667 0 0 0.001 0.066687 0 1 0.3714 
12416.501 0.0633 0 0 0.001 0.063313 0 1 0.3856 
12417.001 0.0655 0 0 0.001 0.065542 0 1 0.393 
12417.501 0.0645 0 0 0.001 0.064458 0 1 0.4018 
12418.001 0.0678 0 0 0.001 0.067771 0 1 0.411 
12418.501 0.0657 0 0 0.001 0.065663 0 1 0.4326 
12419.001 0.0674 0 0 0.001 0.06741 0 1 0.4574 
12419.501 0.0647 0 0 0.001 0.064699 0 1 0.4926 
12420.001 0.0603 0 0 0.001 0.060301 0 1 0.5057 
12420.501 0.0573 0 0 0.001 0.057349 0 1 0.4922 
12421.001 0.0529 0 0 0.001 0.052892 0 1 0.4575 
12421.501 0.0521 0 0 0.001 0.052108 0 1 0.424 
12422.001 0.0519 0 0 0.001 0.051928 0 1 0.3934 
12422.501 0.0544 0 0 0.001 0.054398 0 1 0.3645 
12423.001 0.0577 0 0 0.001 0.057711 0 1 0.3492 
12423.501 0.0609 0 0 0.001 0.060904 0 1 0.3476 
12424.001 0.0628 0 0 0.001 0.062831 0 1 0.3454 
12424.501 0.0626 0 0 0.001 0.06259 0 1 0.3548 
12425.001 0.0563 0 0 0.001 0.056265 0 1 0.3764 
12425.501 0.0541 0 0 0.001 0.054096 0 1 0.4057 
12426.001 0.0544 0 0 0.001 0.054398 0 1 0.419 
12426.501 0.0561 0 0 0.001 0.056084 0 1 0.4253 
12427.001 0.0554 0 0 0.001 0.055361 0 1 0.4211 
12427.501 0.0531 0 0 0.001 0.053133 0 1 0.4425 
12428.001 0.0546 0 0 0.001 0.054639 0 1 0.4608 
12428.501 0.0573 0 0 0.001 0.057289 0 1 0.4841 
12429.001 0.0563 0 0 0.001 0.056265 0 1 0.488 
12429.501 0.0537 0 0 0.001 0.053735 0 1 0.4886 
12430.001 0.0519 0 0 0.001 0.051928 0 1 0.4805 
12430.501 0.0554 0 0 0.001 0.055422 0 1 0.4829 
12431.001 0.0589 0 0 0.001 0.058916 0 1 0.4758 
12431.501 0.0626 0 0 0.001 0.06259 0 1 0.4847 
12432.001 0.0599 0 0 0.001 0.059879 0 1 0.4881 
12432.501 0.0603 0 0 0.001 0.060301 0 1 0.4946 
12433.001 0.0575 0 0 0.001 0.05747 0 1 0.5053 
12433.501 0.0584 0 0 0.001 0.058434 0 1 0.4969 
12434.001 0.0546 0 0 0.001 0.054639 0 1 0.4953 
12434.501 0.0583 0 0 0.001 0.058313 0 1 0.4713 
12435.001 0.0564 0 0 0.001 0.056386 0 1 0.4487 
12435.501 0.0557 0 0 0.001 0.055723 0 1 0.4109 
12436.001 0.051 0 0 0.001 0.051024 0 1 0.3875 
12436.501 0.0544 0 0 0.001 0.054398 0 1 0.3813 
12437.001 0.0604 0 0 0.001 0.060362 0 1 0.3814 
12437.501 0.0654 0 0 0.001 0.065422 0 1 0.3925 
12438.001 0.0619 0 0 0.001 0.061928 0 1 0.3808 
12438.501 0.0622 0 0 0.001 0.062169 0 1 0.3889 
12439.001 0.059 0 0 0.001 0.059036 0 1 0.379 
12439.501 0.0654 0 0 0.001 0.065422 0 1 0.3949 
12440.001 0.0634 0 0 0.001 0.063373 0 1 0.4128 
12440.501 0.0677 0 0 0.001 0.067651 0 1 0.4332 
12441.001 0.0636 0 0 0.001 0.063614 0 1 0.4443 
12441.501 0.0668 0 0 0.001 0.066807 0 1 0.4462 
12442.001 0.0657 0 0 0.001 0.065723 0 1 0.445 
12442.501 0.0655 0 0 0.001 0.065482 0 1 0.4489 
12443.001 0.0608 0 0 0.001 0.060783 0 1 0.4355 
12443.501 0.0581 0 0 0.001 0.058072 0 1 0.4303 
12444.001 0.0589 0 0 0.001 0.058916 0 1 0.4269 
12444.501 0.0607 0 0 0.001 0.060663 0 1 0.4292 
12445.001 0.0628 0 0 0.001 0.062771 0 1 0.4215 
12445.501 0.0617 0 0 0.001 0.061747 0 1 0.4067 
12446.001 0.0584 0 0 0.001 0.058373 0 1 0.4069 
12446.501 0.0575 0 0 0.001 0.05753 0 1 0.3966 
12447.001 0.0552 0 0 0.001 0.055181 0 1 0.401 
12447.501 0.0584 0 0 0.001 0.058434 0 1 0.3983 
12448.001 0.0595 0 0 0.001 0.059518 0 1 0.4061 
12448.501 0.0628 0 0 0.001 0.062831 0 1 0.3998 
12449.001 0.0642 0 0 0.001 0.064217 0 1 0.3977 
12449.501 0.0619 0 0 0.001 0.061928 0 1 0.4048 
12450.001 0.0605 0 0 0.001 0.060542 0 1 0.3981 
12450.501 0.0566 0 0 0.001 0.056566 0 1 0.4052 
12451.001 0.0578 0 0 0.001 0.057831 0 1 0.4092 
12451.501 0.0593 0 0 0.001 0.059337 0 1 0.4282 
12452.001 0.0613 0 0 0.001 0.061265 0 1 0.4365 
12452.501 0.0613 0 0 0.001 0.061265 0 1 0.4409 
