~Version Information
VERS.                2.00 :CWLS Log ASCII Standard
WRAP.                 YES :Multiple lines per depth step
#
~Well Information
#MNEM.UNIT               DATA                    DESCRIPTION OF MNEMONIC
#--- ---- ----------------------------------- -------------------------------
STRT.F                                  0.000 :START Depth
STOP.F                              13418.500 :STOP Depth
STEP.F                                  0.500 :STEP Length
NULL.                                -999.250 :NULL Value
DATE.                              2009-09-07 :LOG DATE
#
~Curve Information
#--- ---- ----------------------------------- -------------------------------
DEPTH.F                                        :
CALI.IN                                       :Ultrasonic Caliper Average Diameter
DRHB.G/CC                                     :Bulk Density Correction  Bottom
DRHO.G/CC                                     :Bulk Density Correction
DRHU.G/CC                                     :Bulk Density Correction  Up
DT  .US/F                                     :Delta-T Compressional
GR  .GAPI                                     :Gamma Ray
NPHI.V/V                                      :Neutron Porosity
PEF .B/E                                      :Photoelectric Factor Bottom
RD  .OHMM                                     :Deep Resistivity
RHOB.G/CC                                     :Bulk Density
ROBB.G/CC                                     :Bulk Density  Bottom
ROBU.G/CC                                     :Bulk Density  Up
RS  .OHMM                                     :Shallow Resistivity
RT  .OHMM                                     :True Resistivity
#
~ASCII data
# ...
11540.501 
  8.5547 -999.25 0.006862 -999.25 67.7752 13.9591 0.118068 4.9609 2.8659 2.5237 
  -999.25 -999.25 2.6341 2.5957 
11541.001 
  8.5582 -999.25 0.004225 -999.25 68.431 14.4694 0.110236 4.953 2.816 2.5354 
  -999.25 -999.25 2.8051 2.7315 
11541.501 
  8.5428 -999.25 -4.8e-05 -999.25 71.3062 15.1706 0.108448 4.9414 2.7907 2.5325 
  -999.25 -999.25 2.8525 2.7654 
11542.001 
  8.5271 -999.25 0.004979 -999.25 71.8116 15.5724 0.108889 4.9834 2.7629 2.531 
  -999.25 -999.25 2.8426 2.8079 
11542.501 
  8.5122 -999.25 0.001901 -999.25 71.4263 14.768 0.115612 4.9758 2.8243 2.5141 
  -999.25 -999.25 2.7662 2.8121 
11543.001 
  8.5296 -999.25 0.003191 -999.25 71.1146 11.6382 0.118298 4.9406 2.9173 2.4986 
  -999.25 -999.25 2.7104 2.6917 
11543.501 
  8.536 -999.25 0.002083 -999.25 70.3569 10.5342 0.118188 4.8782 2.9354 2.487 
  -999.25 -999.25 2.6429 2.6954 
11544.001 
  8.5476 -999.25 0.003598 -999.25 69.8138 9.526 0.121929 4.8834 2.8887 2.4871 
  -999.25 -999.25 2.6373 2.7689 
11544.501 
  8.5892 -999.25 0.00645 -999.25 69.8426 9.8069 0.127539 4.9008 2.9696 2.4982 
  -999.25 -999.25 2.6416 2.7814 
11545.001 
  8.5753 -999.25 0.008589 -999.25 69.3449 11.1053 0.120465 4.9673 3.0275 2.5018 
  -999.25 -999.25 2.7543 2.851 
11545.501 
  8.562 -999.25 0.009469 -999.25 68.6433 14.067 0.111389 5.0343 3.2602 2.52 
  -999.25 -999.25 2.7948 2.8526 
11546.001 
  8.5483 -999.25 0.01124 -999.25 67.2042 17.8914 0.110713 5.0914 3.052 2.5391 
  -999.25 -999.25 2.9948 3.2472 
11546.501 
  8.5694 -999.25 0.0094 -999.25 67.5143 19.0361 0.119416 5.0376 2.9262 2.5603 
  -999.25 -999.25 3.0366 3.5253 
11547.001 
  8.6226 -999.25 0.003903 -999.25 68.3441 19.9916 0.110457 4.9773 2.9909 2.5628 
  -999.25 -999.25 3.0108 3.3877 
11547.501 
  8.5996 -999.25 0.004002 -999.25 66.7507 21.2651 0.118528 4.9007 3.1568 2.5598 
  -999.25 -999.25 2.9812 3.0789 
11548.001 
  8.5558 -999.25 0.00894 -999.25 66.6792 23.9822 0.116246 4.9848 3.2379 2.5628 
  -999.25 -999.25 3.0105 2.9342 
11548.501 
  8.6221 -999.25 0.023286 -999.25 68.2581 24.9137 0.100816 5.1434 3.1965 2.5676 
  -999.25 -999.25 3.1761 3.0051 
11549.001 
  8.6242 -999.25 0.030918 -999.25 69.1112 23.9515 0.09623 5.1933 3.1237 2.5629 
  -999.25 -999.25 3.1873 3.0827 
11549.501 
  8.5568 -999.25 0.027476 -999.25 70.0928 22.5435 0.113251 5.0623 3.072 2.5469 
  -999.25 -999.25 3.2331 3.3767 
11550.001 
  8.5589 -999.25 0.017587 -999.25 71.7877 20.1094 0.11104 4.9081 3.0006 2.5341 
  -999.25 -999.25 3.3288 3.6546 
11550.501 
  8.5544 -999.25 0.008191 -999.25 72.4342 17.6453 0.103367 4.8063 3.0577 2.5183 
  -999.25 -999.25 3.1982 3.4194 
11551.001 
  8.5319 -999.25 0.007042 -999.25 73.1817 15.6491 0.113693 4.7878 3.0199 2.5136 
  -999.25 -999.25 3.1415 3.2825 
11551.501 
  8.5699 -999.25 0.004837 -999.25 73.2827 15.1309 0.118809 4.6736 3.0643 2.513 
  -999.25 -999.25 3.1148 3.2409 
11552.001 
  8.5654 -999.25 0.005813 -999.25 72.1528 15.8446 0.110419 4.6318 2.9852 2.5234 
  -999.25 -999.25 3.0609 3.2072 
11552.501 
  8.5319 -999.25 0.006808 -999.25 71.3297 16.9502 0.106062 4.6031 3.0004 2.5363 
  -999.25 -999.25 2.9325 3.0641 
11553.001 
  8.5673 -999.25 0.011301 -999.25 70.6801 18.6348 0.115821 4.7125 2.9192 2.5473 
  -999.25 -999.25 2.9317 3.1489 
11553.501 
  8.5758 -999.25 0.018131 -999.25 70.7188 19.91 0.112278 4.8238 2.9371 2.5515 
  -999.25 -999.25 2.8572 3.0747 
11554.001 
  8.567 -999.25 0.026759 -999.25 70.7947 21.7815 0.113889 4.9974 2.9458 2.5546 
  -999.25 -999.25 2.8925 3.0639 
11554.501 
  8.5438 -999.25 0.023842 -999.25 72.0446 23.6589 0.118491 4.9703 3.0747 2.5544 
  -999.25 -999.25 2.8449 2.8839 
11555.001 
  8.5543 -999.25 0.01595 -999.25 73.9061 24.4236 0.11507 4.8984 3.012 2.5539 
  -999.25 -999.25 2.9418 2.9633 
11555.501 
  8.5466 -999.25 0.008934 -999.25 75.2088 23.8405 0.116523 4.7526 2.9679 2.547 
  -999.25 -999.25 2.917 3.0966 
11556.001 
  8.5352 -999.25 0.009762 -999.25 76.4538 22.6342 0.116124 4.7333 2.9407 2.5342 
  -999.25 -999.25 2.9668 3.1914 
11556.501 
  8.5339 -999.25 0.025396 -999.25 75.7828 21.952 0.111861 4.9007 2.9083 2.5448 
  -999.25 -999.25 2.8964 3.0329 
11557.001 
  8.5079 -999.25 0.032186 -999.25 73.1388 21.2976 0.11859 5.1049 2.9081 2.5449 
  -999.25 -999.25 2.9578 2.9769 
11557.501 
  8.4935 -999.25 0.03702 -999.25 71.0005 20.9371 0.123607 5.1111 2.8286 2.5435 
  -999.25 -999.25 2.9568 3.2623 
11558.001 
  8.5115 -999.25 0.017075 -999.25 69.0557 21.9288 0.128455 4.8423 2.8199 2.5211 
  -999.25 -999.25 2.9461 3.2336 
11558.501 
  8.5555 -999.25 0.006062 -999.25 68.9062 23.7436 0.127107 4.5854 2.888 2.5205 
  -999.25 -999.25 2.7938 2.8953 
11559.001 
  8.5695 -999.25 0.000869 -999.25 69.9097 25.7821 0.126039 4.4889 2.9321 2.5308 
  -999.25 -999.25 2.6973 2.6592 
11559.501 
  8.5649 -999.25 0.012985 -999.25 71.0382 26.0605 0.123233 4.6398 3.0026 2.5408 
  -999.25 -999.25 2.6581 2.6873 
11560.001 
  8.5351 -999.25 0.019817 -999.25 70.5731 25.4271 0.120499 4.7747 2.9873 2.548 
  -999.25 -999.25 2.6005 2.6473 
11560.501 
  8.5806 -999.25 0.018712 -999.25 72.4357 23.9829 0.118669 4.8336 3.0221 2.5468 
  -999.25 -999.25 2.5641 2.6189 
11561.001 
  8.6064 -999.25 0.007954 -999.25 72.4522 22.354 0.113654 4.7572 3.0644 2.5375 
  -999.25 -999.25 2.622 2.7685 
11561.501 
  8.6062 -999.25 0.003293 -999.25 70.8958 20.8717 0.11203 4.7104 3.0178 2.5249 
  -999.25 -999.25 2.7157 3.0322 
11562.001 
  8.5667 -999.25 0.004387 -999.25 70.7174 20.3057 0.128413 4.6703 2.9209 2.5168 
  -999.25 -999.25 2.765 3.0577 
11562.501 
  8.5915 -999.25 0.00616 -999.25 70.4393 19.7983 0.118747 4.6778 2.835 2.5178 
  -999.25 -999.25 2.8057 3.1278 
11563.001 
  8.5829 -999.25 -0.00015 -999.25 71.1881 20.215 0.115754 4.5695 2.9107 2.5155 
  -999.25 -999.25 2.8731 2.9652 
11563.501 
  8.6025 -999.25 0.000739 -999.25 70.709 19.7338 0.118126 4.5391 2.9553 2.5239 
  -999.25 -999.25 2.893 2.9984 
11564.001 
  8.5899 -999.25 0.001069 -999.25 70.2538 19.3118 0.113939 4.468 2.9774 2.5285 
  -999.25 -999.25 2.9058 3.0369 
11564.501 
  8.5965 -999.25 0.005062 -999.25 70.4089 18.567 0.120287 4.5057 2.9845 2.5335 
  -999.25 -999.25 2.8599 2.9734 
11565.001 
  8.6174 -999.25 0.004225 -999.25 70.0256 18.5046 0.116739 4.5643 3.0227 2.5344 
  -999.25 -999.25 2.9487 3.0264 
11565.501 
  8.6114 -999.25 0.004784 -999.25 69.9628 19.4166 0.114918 4.672 3.0275 2.532 
  -999.25 -999.25 2.9902 3.0667 
11566.001 
  8.6179 -999.25 0.009231 -999.25 69.5618 18.8285 0.113816 4.8235 3.0721 2.5272 
  -999.25 -999.25 2.9936 3.1034 
11566.501 
  8.6093 -999.25 0.011499 -999.25 69.6412 18.8418 0.110825 4.8661 3.007 2.5211 
  -999.25 -999.25 3.0791 3.1775 
11567.001 
  8.5648 -999.25 0.014756 -999.25 70.886 19.2189 0.108142 4.9494 2.9674 2.5261 
  -999.25 -999.25 3.0749 3.225 
11567.501 
  8.5769 -999.25 0.015174 -999.25 71.7191 20.2203 0.118666 4.8828 3.0293 2.5319 
  -999.25 -999.25 3.1203 3.1988 
11568.001 
  8.5681 -999.25 0.016524 -999.25 71.8369 20.596 0.112069 4.9411 3.0656 2.5351 
  -999.25 -999.25 3.156 3.2192 
11568.501 
  8.5457 -999.25 0.00443 -999.25 71.3361 19.9644 0.108814 4.7997 3.0737 2.5302 
  -999.25 -999.25 3.1847 3.2272 
11569.001 
  8.5596 -999.25 -0.000699 -999.25 69.5789 20.3032 0.106973 4.8117 3.0895 2.5359 
  -999.25 -999.25 3.1697 3.2699 
11569.501 
  8.5693 -999.25 -0.003493 -999.25 69.2343 20.6745 0.111305 4.7436 3.024 2.5428 
  -999.25 -999.25 3.1949 3.3408 
11570.001 
  8.5865 -999.25 0.001934 -999.25 69.8232 20.6219 0.109349 4.8412 3.0659 2.5507 
  -999.25 -999.25 3.268 3.3824 
11570.501 
  8.5889 -999.25 0.010158 -999.25 70.741 20.7853 0.11709 4.8853 3.0576 2.5481 
  -999.25 -999.25 3.2956 3.4496 
11571.001 
  8.5351 -999.25 0.024739 -999.25 70.6101 21.7701 0.116131 5.0589 3.0835 2.5435 
  -999.25 -999.25 3.3023 3.4021 
11571.501 
  8.4944 -999.25 0.035375 -999.25 70.1204 22.6047 0.113665 5.1746 3.103 2.5362 
  -999.25 -999.25 3.0893 3.2826 
11572.001 
  8.5391 -999.25 0.035945 -999.25 69.753 22.6269 0.115898 5.106 3.17 2.5313 
  -999.25 -999.25 3.0774 3.2498 
11572.501 
  8.5323 -999.25 0.026882 -999.25 69.3304 21.5532 0.114538 4.9014 3.1553 2.5331 
  -999.25 -999.25 3.0568 3.2298 
