~Version Information
VERS.                2.00 :CWLS Log ASCII Standard
WRAP.                  NO :One line per depth step
#
~Well Information
#MNEM.UNIT               DATA                    DESCRIPTION OF MNEMONIC
#--- ---- ----------------------------------- -------------------------------
STRT.F                               8494.000 :START Depth
STOP.F                              13418.500 :STOP Depth
STEP.F                                  0.500 :STEP Length
NULL.                                -999.250 :NULL Value
DATE.                              2009-09-07 :LOG DATE
#
~Curve Information
#--- ---- ----------------------------------- -------------------------------
DEPTH.F                                        :
BVW .V/V                                      :Bound Volume Water
CARB_FLAG.UNITLESS                                     :Carbonate flag
COAL_FLAG.UNITLESS                                     :Coal flag
KLOGH.MD                                       :Calculated Horizontal Permeability From Logs
PHIF.V/V                                      :Final Porosity
SAND_FLAG.UNITLESS                                     :Sand Flag
SW  .V/V                                      :Water Saturation
VSH .V/V                                      :Volume of Shale
#
~ASCII data
# ...
13357.501 0.082 0 0 0.1043 0.082032 0 1 0.3033 
13358.001 0.0793 0 0 0.0717 0.079282 0 1 0.3407 
13358.501 0.0834 0 0 0.1005 0.083926 0 0.9935 0.3418 
13359.001 0.0871 0 0 0.1481 0.087123 0 1 0.3086 
13359.501 0.0821 0 0 0.1392 0.085188 0 0.9637 0.2911 
13360.001 0.0782 1 0 0.0801 0.078405 0 0.9977 0.3026 
13360.501 0.0725 0 0 0.0469 0.072471 0 1 0.324 
13361.001 0.0656 0 0 0.0256 0.065623 0 1 0.3461 
13361.501 0.0645 0 0 0.0214 0.064451 0 1 0.3664 
13362.001 0.0643 1 0 0.0208 0.064255 0 1 0.3694 
13362.501 0.0663 0 0 0.0245 0.066299 0 1 0.3665 
13363.001 0.0643 0 0 0.0213 0.064323 0 1 0.3651 
13363.501 0.0654 0 0 0.0235 0.065395 0 1 0.3611 
13364.001 0.0657 0 0 0.0259 0.065661 0 1 0.3441 
13364.501 0.0674 0 0 0.0342 0.06741 0 1 0.3114 
13365.001 0.0678 0 0 0.0389 0.067766 0 1 0.2892 
13365.501 0.068 0 0 0.0401 0.067955 0 1 0.2857 
13366.001 0.0651 0 0 0.033 0.065109 0 1 0.2823 
13366.501 0.0573 1 0 0.019 0.057307 0 1 0.277 
13367.001 0.054 1 0 0.0148 0.054012 0 1 0.2793 
13367.501 0.0548 0 0 0.0146 0.054786 0 1 0.2945 
13368.001 0.0632 0 0 0.0254 0.063177 0 1 0.3082 
13368.501 0.0666 0 0 0.0328 0.06767 0 0.9849 0.3246 
13369.001 0.0436 0 0 0.0037 0.0436 0 1 0.4134 
13369.501 0.0502 0 0 0.0033 0.050171 0 1 0.5429 
13370.001 0.0552 0 0 0.0026 0.0552 0 1 0.6755 
13370.501 0.0495 0 0 0.0013 0.049543 0 1 0.7416 
13371.001 0.0481 0 0 0.001 0.048057 0 1 0.781 
13371.501 0.046 0 0 0.001 0.046 0 1 0.8202 
13372.001 0.0437 1 0 0.001 0.043657 0 1 0.8421 
13372.501 0.0333 1 0 0.001 0.033257 0 1 0.8527 
13373.001 0.0177 1 0 0.001 0.017714 0 1 0.8399 
13373.501 0.0162 1 0 0.001 0.016171 0 1 0.8208 
13374.001 0.0268 0 0 0.001 0.0268 0 1 0.7926 
13374.501 0.0384 0 0 0.001 0.0384 0 1 0.7679 
13375.001 0.0431 0 0 0.001 0.043143 0 1 0.7471 
13375.501 0.0403 0 0 0.001 0.040343 0 1 0.7396 
13376.001 0.0397 1 0 0.001 0.039714 0 1 0.7189 
13376.501 0.0293 1 0 0.001 0.029314 0 1 0.6916 
13377.001 0.0235 1 0 0.001 0.023486 0 1 0.6596 
13377.501 0.0154 1 0 0.001 0.015371 0 1 0.6344 
13378.001 0.0229 1 0 0.001 0.022857 0 1 0.6079 
13378.501 0.0229 1 0 0.001 0.022857 0 1 0.5812 
13379.001 0.0229 1 0 0.001 0.022857 0 1 0.5693 
13379.501 0.0229 1 0 0.001 0.022857 0 1 0.5629 
13380.001 0.0229 1 0 0.001 0.022857 0 1 0.5594 
13380.501 0.0229 1 0 0.001 0.022857 0 1 0.5704 
13381.001 0.0229 1 0 0.001 0.022857 0 1 0.6079 
13381.501 0.0229 1 0 0.001 0.022857 0 1 0.645 
13382.001 0.0229 1 0 0.001 0.022857 0 1 0.658 
13382.501 0.0229 1 0 0.001 0.022857 0 1 0.6401 
13383.001 0.0229 1 0 0.001 0.022857 0 1 0.6401 
13383.501 0.0229 1 0 0.001 0.022857 0 1 0.6401 
13384.001 0.0229 1 0 0.001 0.022857 0 1 0.6401 
13384.501 0.0229 1 0 0.001 0.022857 0 1 0.6401 
13385.001 0.0229 1 0 0.001 0.022857 0 1 0.6401 
13385.501 0.0229 1 0 0.001 0.022857 0 1 0.6401 
13386.001 0.0229 1 0 0.001 0.022857 0 1 0.6401 
13386.501 0.0229 1 0 0.001 0.022857 0 1 0.6401 
13387.001 0.0229 1 0 0.001 0.022857 0 1 0.6401 
13387.501 0.0229 1 0 0.001 0.022857 0 1 0.6401 
13388.001 0.0229 1 0 0.001 0.022857 0 1 0.6401 
13388.501 0.0229 1 0 0.001 0.022857 0 1 0.6401 
13389.001 0.0229 1 0 0.001 0.022857 0 1 0.6401 
13389.501 0.0229 1 0 0.001 0.022857 0 1 0.6401 
13390.001 0.0229 1 0 0.001 0.022857 0 1 0.6401 
13390.501 0.0229 1 0 0.001 0.022857 0 1 0.6401 
13391.001 0.0229 1 0 0.001 0.022857 0 1 0.6401 
13391.501 0.0229 1 0 0.001 0.022857 0 1 0.6401 
13392.001 0.0229 1 0 0.001 0.022857 0 1 0.6401 
13392.501 0.0229 1 0 0.001 0.022857 0 1 0.6401 
13393.001 0.0229 1 0 0.001 0.022857 0 1 0.6401 
13393.501 0.0229 1 0 0.001 0.022857 0 1 0.6401 
13394.001 0.0229 1 0 0.001 0.022857 0 1 0.6401 
13394.501 0.0229 1 0 0.001 0.022857 0 1 0.6401 
13395.001 0.0229 1 0 0.001 0.022857 0 1 0.6401 
13395.501 0.0229 1 0 0.001 0.022857 0 1 0.6401 
13396.001 0.0229 1 0 0.001 0.022857 0 1 0.6401 
13396.501 0.0229 1 0 0.001 0.022857 0 1 0.6401 
13397.001 0.0229 1 0 0.001 0.022857 0 1 0.6401 
13397.501 0.0229 1 0 0.001 0.022857 0 1 0.6401 
13398.001 0.0229 1 0 0.001 0.022857 0 1 0.6401 
13398.501 0.0229 1 0 0.001 0.022857 0 1 0.6401 
13399.001 0.0229 1 0 0.001 0.022857 0 1 0.6401 
13399.501 0.0229 1 0 0.001 0.022857 0 1 0.6401 
13400.001 0.0229 1 0 0.001 0.022857 0 1 0.6401 
13400.501 0.0229 1 0 0.001 0.022857 0 1 0.6401 
13401.001 0.0229 1 0 0.001 0.022857 0 1 0.6401 
13401.501 0.0229 1 0 0.001 0.022857 0 1 0.6401 
13402.001 0.0229 1 0 0.001 0.022857 0 1 0.6401 
13402.501 0.0229 1 0 0.001 0.022857 0 1 0.6401 
13403.001 0.0229 1 0 0.001 0.022857 0 1 0.6401 
13403.501 0.0229 1 0 0.001 0.022857 0 1 0.6401 
13404.001 0.0229 1 0 0.001 0.022857 0 1 0.6401 
13404.501 0.0229 1 0 0.001 0.022857 0 1 0.6401 
13405.001 0.0229 1 0 0.001 0.022857 0 1 0.6401 
13405.501 0.0229 1 0 0.001 0.022857 0 1 0.6401 
13406.001 0.0229 1 0 0.001 0.022857 0 1 0.6401 
13406.501 0.0229 1 0 0.001 0.022857 0 1 0.6401 
13407.001 0.0229 1 0 0.001 0.022857 0 1 0.6401 
13407.501 0.0229 1 0 0.001 0.022857 0 1 0.6401 
13408.001 0.0229 1 0 0.001 0.022857 0 1 0.6401 
13408.501 0.0229 1 0 0.001 0.022857 0 1 0.6401 
13409.001 0.0229 1 0 0.001 0.022857 0 1 0.6401 
13409.501 0.0229 1 0 0.001 0.022857 0 1 0.6401 
13410.001 0.0229 1 0 0.001 0.022857 0 1 0.6401 
13410.501 0.0229 1 0 0.001 0.022857 0 1 0.6401 
13411.001 0.0229 1 0 0.001 0.022857 0 1 0.6401 
13411.501 0.0229 1 0 0.001 0.022857 0 1 0.6401 
13412.001 0.0229 1 0 0.001 0.022857 0 1 0.6401 
13412.501 0.0229 1 0 0.001 0.022857 0 1 0.6401 
13413.001 0.0229 1 0 0.001 0.022857 0 1 0.6401 
13413.501 0.0229 1 0 0.001 0.022857 0 1 0.6401 
13414.001 0.0229 1 0 0.001 0.022857 0 1 0.6401 
13414.501 0.0229 1 0 0.001 0.022857 0 1 0.6401 
13415.001 0.0229 1 0 0.001 0.022857 0 1 0.6401 
13415.501 0.0229 1 0 0.001 0.022857 0 1 0.6401 
13416.001 0.0229 1 0 0.001 0.022857 0 1 0.6401 
13416.501 0.0229 1 0 0.001 0.022857 0 1 0.6401 
13417.001 0.0229 1 0 0.001 0.022857 0 1 0.6401 
13417.501 0.0229 1 0 0.001 0.022857 0 1 0.6401 
13418.001 0.0229 1 0 0.001 0.022857 0 1 0.6401 
13418.501 -999.25 -999.25 -999.25 -999.25 -999.25 -999.25 -999.25 -999.25 
