~Version Information
VERS.                2.00 :CWLS Log ASCII Standard
WRAP.                  NO :One line per depth step
#
~Well Information
#MNEM.UNIT               DATA                    DESCRIPTION OF MNEMONIC
#--- ---- ----------------------------------- -------------------------------
STRT.F                               8494.000 :START Depth
STOP.F                              13418.500 :STOP Depth
STEP.F                                  0.500 :STEP Length
NULL.                                -999.250 :NULL Value
DATE.                              2009-09-07 :LOG DATE
#
~Curve Information
#--- ---- ----------------------------------- -------------------------------
DEPTH.F                                        :
BVW .V/V                                      :Bound Volume Water
CARB_FLAG.UNITLESS                                     :Carbonate flag
COAL_FLAG.UNITLESS                                     :Coal flag
KLOGH.MD                                       :Calculated Horizontal Permeability From Logs
PHIF.V/V                                      :Final Porosity
SAND_FLAG.UNITLESS                                     :Sand Flag
SW  .V/V                                      :Water Saturation
VSH .V/V                                      :Volume of Shale
#
~ASCII data
# ...
12032.501 0.0456 0 0 0.001 0.045602 0 1 0.2283 
12033.001 0.047 0 0 0.001 0.047048 0 1 0.2448 
12033.501 0.0473 0 0 0.001 0.047349 0 1 0.2592 
12034.001 0.0469 0 0 0.001 0.046928 0 1 0.2537 
12034.501 0.0457 0 0 0.001 0.045663 0 1 0.2594 
12035.001 0.049 0 0 0.001 0.049036 0 1 0.2694 
12035.501 0.0475 0 0 0.001 0.04747 0 1 0.2769 
12036.001 0.0486 0 0 0.001 0.048554 0 1 0.2775 
12036.501 0.049 0 0 0.001 0.049036 0 1 0.2786 
12037.001 0.052 0 0 0.001 0.052048 0 1 0.2949 
12037.501 0.0504 0 0 0.001 0.050422 0 1 0.3095 
12038.001 0.0477 0 0 0.001 0.047651 0 1 0.309 
12038.501 0.0472 0 0 0.001 0.047229 0 1 0.313 
12039.001 0.0493 0 0 0.001 0.049337 0 1 0.3088 
12039.501 0.0496 0 0 0.001 0.049578 0 1 0.3115 
12040.001 0.0487 0 0 0.001 0.048735 0 1 0.3151 
12040.501 0.0506 0 0 0.001 0.050602 0 1 0.326 
12041.001 0.054 0 0 0.001 0.054036 0 1 0.3457 
12041.501 0.0568 0 0 0.001 0.056807 0 1 0.3453 
12042.001 0.0552 0 0 0.001 0.055181 0 1 0.347 
12042.501 0.052 0 0 0.001 0.051988 0 1 0.3465 
12043.001 0.0483 0 0 0.001 0.048253 0 1 0.3529 
12043.501 0.0466 0 0 0.001 0.046626 0 1 0.3509 
12044.001 0.0485 0 0 0.001 0.048494 0 1 0.3358 
12044.501 0.0501 0 0 0.001 0.05012 0 1 0.3267 
12045.001 0.0495 0 0 0.001 0.049518 0 1 0.3159 
12045.501 0.0506 0 0 0.001 0.050602 0 1 0.3178 
12046.001 0.0479 0 0 0.001 0.047892 0 1 0.3041 
12046.501 0.0489 0 0 0.001 0.048855 0 1 0.2974 
12047.001 0.0428 0 0 0.001 0.042831 0 1 0.286 
12047.501 0.0394 0 0 0.001 0.039398 0 1 0.2841 
12048.001 0.0365 0 0 0.001 0.036506 0 1 0.266 
12048.501 0.038 0 0 0.001 0.037952 0 1 0.2578 
12049.001 0.0372 0 0 0.001 0.037229 0 1 0.2419 
12049.501 0.0344 0 0 0.001 0.034398 0 1 0.2388 
12050.001 0.0306 0 0 0.001 0.030602 0 1 0.2327 
12050.501 0.0298 0 0 0.001 0.029759 0 1 0.2278 
12051.001 0.0347 0 0 0.001 0.034699 0 1 0.2301 
12051.501 0.0377 0 0 0.001 0.037651 0 1 0.2326 
12052.001 0.0402 0 0 0.001 0.040181 0 1 0.2402 
12052.501 0.0363 0 0 0.001 0.036265 0 1 0.2498 
12053.001 0.0358 0 0 0.001 0.035843 0 1 0.2651 
12053.501 0.0381 0 0 0.001 0.038072 0 1 0.2752 
12054.001 0.0381 0 0 0.001 0.038072 0 1 0.289 
12054.501 0.0451 0 0 0.001 0.045121 0 1 0.2975 
12055.001 0.0497 0 0 0.001 0.049699 0 1 0.3192 
12055.501 0.0565 0 0 0.001 0.056506 0 1 0.3324 
12056.001 0.0542 0 0 0.001 0.054217 0 1 0.3485 
12056.501 0.0544 0 0 0.001 0.054398 0 1 0.3518 
12057.001 0.0562 0 0 0.001 0.056205 0 1 0.3527 
12057.501 0.0558 0 0 0.001 0.055783 0 1 0.3548 
12058.001 0.0545 0 0 0.001 0.054518 0 1 0.3765 
12058.501 0.0581 0 0 0.001 0.058072 0 1 0.3909 
12059.001 0.0613 0 0 0.001 0.061265 0 1 0.3971 
12059.501 0.0632 0 0 0.001 0.063193 0 1 0.3863 
12060.001 0.0577 0 0 0.001 0.057711 0 1 0.3849 
12060.501 0.0563 0 0 0.001 0.056325 0 1 0.389 
12061.001 0.055 0 0 0.001 0.055 0 1 0.3906 
12061.501 0.0525 0 0 0.001 0.05247 0 1 0.3863 
12062.001 0.0492 0 0 0.001 0.049157 0 1 0.3744 
12062.501 0.0464 0 0 0.001 0.046446 0 1 0.3612 
12063.001 0.0472 0 0 0.001 0.047169 0 1 0.3514 
12063.501 0.0451 0 0 0.001 0.045121 0 1 0.3465 
12064.001 0.0427 0 0 0.001 0.042711 0 1 0.3394 
12064.501 0.0388 0 0 0.001 0.038795 0 1 0.3317 
12065.001 0.0387 0 0 0.001 0.038675 0 1 0.3204 
12065.501 0.0436 0 0 0.001 0.043554 0 1 0.3221 
12066.001 0.048 0 0 0.001 0.047952 0 1 0.3219 
12066.501 0.049 0 0 0.001 0.049036 0 1 0.325 
12067.001 0.0475 0 0 0.001 0.04753 0 1 0.3229 
12067.501 0.0462 0 0 0.001 0.046205 0 1 0.3257 
12068.001 0.0448 0 0 0.001 0.044759 0 1 0.3285 
12068.501 0.0431 0 0 0.001 0.043133 0 1 0.3245 
12069.001 0.0433 0 0 0.001 0.043313 0 1 0.3083 
12069.501 0.0426 0 0 0.001 0.04259 0 1 0.2894 
12070.001 0.0392 0 0 0.001 0.039157 0 1 0.2705 
12070.501 0.0322 0 0 0.001 0.032229 0 1 0.2725 
12071.001 0.0272 0 0 0.001 0.027229 0 1 0.2655 
12071.501 0.0227 0 0 0.001 0.022711 0 1 0.2765 
12072.001 0.0273 0 0 0.001 0.027289 0 1 0.2774 
12072.501 0.0333 0 0 0.001 0.033313 0 1 0.3029 
12073.001 0.0375 0 0 0.001 0.03747 0 1 0.3132 
12073.501 0.0348 0 0 0.001 0.034759 0 1 0.3273 
12074.001 0.0333 0 0 0.001 0.033253 0 1 0.3406 
12074.501 0.0326 0 0 0.001 0.03259 0 1 0.3554 
12075.001 0.0333 0 0 0.001 0.033253 0 1 0.356 
12075.501 0.0363 0 0 0.001 0.036265 0 1 0.3299 
12076.001 0.0374 0 0 0.001 0.03741 0 1 0.3025 
12076.501 0.0362 0 0 0.001 0.036205 0 1 0.2851 
12077.001 0.0342 0 0 0.001 0.034157 0 1 0.2876 
12077.501 0.0334 0 0 0.001 0.033374 0 1 0.299 
12078.001 0.0367 0 0 0.001 0.036687 0 1 0.3141 
12078.501 0.0353 0 0 0.001 0.035301 0 1 0.3231 
12079.001 0.0356 0 0 0.001 0.035602 0 1 0.3219 
12079.501 0.0331 0 0 0.001 0.033133 0 1 0.3155 
12080.001 0.0325 0 0 0.001 0.03247 0 1 0.2967 
12080.501 0.0346 0 0 0.001 0.034578 0 1 0.277 
12081.001 0.0384 0 0 0.001 0.038434 0 1 0.2612 
12081.501 0.0407 0 0 0.001 0.040723 0 1 0.2589 
12082.001 0.0422 0 0 0.001 0.042229 0 1 0.2681 
12082.501 0.0428 0 0 0.001 0.042831 0 1 0.2849 
12083.001 0.0455 0 0 0.001 0.045482 0 1 0.3112 
12083.501 0.0478 0 0 0.001 0.047771 0 1 0.3324 
12084.001 0.051 0 0 0.001 0.050964 0 1 0.3382 
12084.501 0.0499 0 0 0.001 0.04988 0 1 0.33 
12085.001 0.048 0 0 0.001 0.048012 0 1 0.3243 
12085.501 0.0454 0 0 0.001 0.045422 0 1 0.3273 
12086.001 0.0467 0 0 0.001 0.046747 0 1 0.3381 
12086.501 0.048 0 0 0.001 0.048012 0 1 0.3457 
12087.001 0.0493 0 0 0.001 0.049337 0 1 0.3535 
12087.501 0.0513 0 0 0.001 0.051325 0 1 0.3592 
12088.001 0.0557 0 0 0.001 0.055663 0 1 0.3527 
12088.501 0.0569 0 0 0.001 0.056868 0 1 0.3513 
12089.001 0.0577 0 0 0.001 0.057711 0 1 0.3489 
12089.501 0.056 0 0 0.001 0.055964 0 1 0.3652 
12090.001 0.0574 0 0 0.001 0.05741 0 1 0.3738 
12090.501 0.0581 0 0 0.001 0.058072 0 1 0.3916 
12091.001 0.0595 0 0 0.001 0.059458 0 1 0.4094 
12091.501 0.0605 0 0 0.001 0.060542 0 1 0.4332 
12092.001 0.0614 0 0 0.001 0.061386 0 1 0.4671 
12092.501 0.0651 0 0 0.001 0.065121 0 1 0.4962 
12093.001 0.0649 0 0 0.001 0.06488 0 1 0.517 
12093.501 0.0588 0 0 0.001 0.058795 0 1 0.5176 
12094.001 0.0421 0 0 0.001 0.042108 0 1 0.4901 
12094.501 0.0256 1 0 0.001 0.025602 0 1 0.4181 
12095.001 0.0126 1 0 0.001 0.01259 0 1 0.3092 
12095.501 0.0108 1 0 0.001 0.010843 0 1 0.2065 
12096.001 0.014 1 0 0.001 0.014036 0 1 0.1555 
12096.501 0.0184 0 0 0.001 0.018434 0 1 0.1401 
12097.001 0.0165 0 0 0.001 0.016506 0 1 0.1475 
12097.501 0.0163 0 0 0.001 0.016325 0 1 0.1506 
12098.001 0.016 0 0 0.001 0.016024 0 1 0.1588 
12098.501 0.0135 0 0 0.001 0.013494 0 1 0.17 
12099.001 0.011 1 0 0.001 0.011024 0 1 0.1765 
12099.501 0.0123 1 0 0.001 0.012289 0 1 0.1788 
12100.001 0.016 1 0 0.001 0.016024 0 1 0.1736 
12100.501 0.0205 0 0 0.001 0.020482 0 1 0.181 
12101.001 0.0214 0 0 0.001 0.021446 0 1 0.1927 
12101.501 0.0213 0 0 0.001 0.021325 0 1 0.204 
12102.001 0.0213 0 0 0.001 0.021265 0 1 0.2185 
12102.501 0.0219 0 0 0.001 0.021868 0 1 0.2312 
12103.001 0.0301 1 0 0.001 0.03006 0 1 0.2386 
12103.501 0.0331 0 0 0.001 0.033133 0 1 0.2401 
12104.001 0.0342 0 0 0.001 0.034217 0 1 0.2405 
12104.501 0.0325 0 0 0.001 0.03253 0 1 0.2541 
12105.001 0.0327 0 0 0.001 0.032711 0 1 0.2568 
12105.501 0.0336 1 0 0.001 0.033615 0 1 0.2458 
12106.001 0.032 0 0 0.001 0.031988 0 1 0.2339 
12106.501 0.0327 1 0 0.001 0.032651 0 1 0.2248 
12107.001 0.032 0 0 0.001 0.031988 0 1 0.227 
12107.501 0.0372 0 0 0.001 0.037229 0 1 0.2237 
12108.001 0.0331 0 0 0.001 0.033072 0 1 0.2231 
12108.501 0.0319 0 0 0.001 0.031928 0 1 0.2333 
12109.001 0.0286 0 0 0.001 0.028554 0 1 0.2391 
12109.501 0.0304 0 0 0.001 0.030361 0 1 0.2422 
12110.001 0.0284 1 0 0.001 0.028434 0 1 0.2314 
12110.501 0.0238 0 0 0.001 0.023795 0 1 0.2089 
12111.001 0.0213 0 0 0.001 0.021265 0 1 0.19 
12111.501 0.023 0 0 0.001 0.022952 0 1 0.1614 
12112.001 0.0255 0 0 0.001 0.025542 0 1 0.1537 
12112.501 0.033 0 0 0.001 0.032952 0 1 0.1425 
12113.001 0.0308 0 0 0.001 0.030783 0 1 0.1614 
12113.501 0.0313 0 0 0.001 0.031265 0 1 0.1811 
12114.001 0.0265 0 0 0.001 0.026506 0 1 0.1994 
12114.501 0.0249 0 0 0.001 0.02488 0 1 0.2065 
12115.001 0.0211 0 0 0.001 0.021145 0 1 0.2137 
12115.501 0.0187 0 0 0.001 0.018735 0 1 0.2128 
12116.001 0.0158 0 0 0.001 0.015783 0 1 0.2044 
