~Version Information
VERS.                2.00 :CWLS Log ASCII Standard
WRAP.                 YES :Multiple lines per depth step
#
~Well Information
#MNEM.UNIT               DATA                    DESCRIPTION OF MNEMONIC
#--- ---- ----------------------------------- -------------------------------
STRT.F                                  0.000 :START Depth
STOP.F                              13418.500 :STOP Depth
STEP.F                                  0.500 :STEP Length
NULL.                                -999.250 :NULL Value
DATE.                              2009-09-07 :LOG DATE
#
~Curve Information
#--- ---- ----------------------------------- -------------------------------
DEPTH.F                                        :
CALI.IN                                       :Ultrasonic Caliper Average Diameter
DRHB.G/CC                                     :Bulk Density Correction  Bottom
DRHO.G/CC                                     :Bulk Density Correction
DRHU.G/CC                                     :Bulk Density Correction  Up
DT  .US/F                                     :Delta-T Compressional
GR  .GAPI                                     :Gamma Ray
NPHI.V/V                                      :Neutron Porosity
PEF .B/E                                      :Photoelectric Factor Bottom
RD  .OHMM                                     :Deep Resistivity
RHOB.G/CC                                     :Bulk Density
ROBB.G/CC                                     :Bulk Density  Bottom
ROBU.G/CC                                     :Bulk Density  Up
RS  .OHMM                                     :Shallow Resistivity
RT  .OHMM                                     :True Resistivity
#
~ASCII data
# ...
7461.500 
  8.88 -999.25 -999.25 -999.25 -999.25 96.1771 0.615014 69.4872 0.6385 1.7783 
  -999.25 -999.25 0.5299 0.4956 
7462.000 
  8.88 -999.25 -999.25 -999.25 -999.25 93.7321 0.615014 69.4872 0.6024 1.7783 
  -999.25 -999.25 0.5539 0.5275 
7462.500 
  8.88 -999.25 -999.25 -999.25 -999.25 92.2339 0.615014 69.4872 0.6198 1.7783 
  -999.25 -999.25 0.5588 0.5327 
7463.000 
  8.88 -999.25 -999.25 -999.25 -999.25 91.4129 0.615014 69.4872 0.6194 1.7783 
  -999.25 -999.25 0.5543 0.5203 
7463.500 
  8.88 -999.25 -999.25 -999.25 -999.25 90.508 0.615014 69.4872 0.6461 1.7783 
  -999.25 -999.25 0.5444 0.51 
7464.000 
  8.88 -999.25 -999.25 -999.25 -999.25 90.7897 0.615014 69.4872 0.616 1.7783 
  -999.25 -999.25 0.564 0.5004 
7464.500 
  8.88 -999.25 -999.25 -999.25 -999.25 91.2331 0.615014 69.4872 0.6172 1.7783 
  -999.25 -999.25 0.6059 0.4874 
7465.000 
  8.88 -999.25 -999.25 -999.25 -999.25 92.8571 0.615014 69.4872 0.7293 1.7783 
  -999.25 -999.25 0.5415 0.4975 
7465.500 
  8.88 -999.25 -999.25 -999.25 -999.25 92.5395 0.615014 69.4872 0.7936 1.7783 
  -999.25 -999.25 0.5415 0.5394 
7466.000 
  8.88 -999.25 -999.25 -999.25 -999.25 93.3066 0.615014 69.4872 0.7172 1.7783 
  -999.25 -999.25 0.6019 0.637 
7466.500 
  8.88 -999.25 -999.25 -999.25 -999.25 92.6294 0.615014 69.4872 0.6177 1.7783 
  -999.25 -999.25 0.6302 0.577 
7467.000 
  8.88 -999.25 -999.25 -999.25 -999.25 94.3373 0.615014 69.4872 0.6255 1.7783 
  -999.25 -999.25 0.6322 0.5563 
7467.500 
  8.88 -999.25 -999.25 -999.25 -999.25 93.3485 0.615014 69.4872 0.6358 1.7783 
  -999.25 -999.25 0.6264 0.5253 
7468.000 
  8.88 -999.25 -999.25 -999.25 -999.25 94.2295 0.615014 69.4872 0.68 1.7783 
  -999.25 -999.25 0.6125 0.5323 
7468.500 
  8.88 -999.25 -999.25 -999.25 -999.25 98.5862 0.615014 69.4872 0.6803 1.7783 
  -999.25 -999.25 0.6198 0.5488 
7469.000 
  8.88 -999.25 -999.25 -999.25 -999.25 104.507 0.615014 69.4872 0.6533 1.7783 
  -999.25 -999.25 0.6207 0.5662 
7469.500 
  8.88 -999.25 -999.25 -999.25 -999.25 106.91 0.615014 69.4872 0.6307 1.7783 
  -999.25 -999.25 0.6171 0.5598 
7470.000 
  8.88 -999.25 -999.25 -999.25 -999.25 100.995 0.615014 69.4872 0.6134 1.7783 
  -999.25 -999.25 0.613 0.5518 
7470.500 
  8.88 -999.25 -999.25 -999.25 -999.25 93.7561 0.615014 69.4872 0.6141 1.7783 
  -999.25 -999.25 0.6091 0.54 
7471.000 
  8.88 -999.25 -999.25 -999.25 -999.25 93.5104 0.615014 69.4872 0.5884 1.7783 
  -999.25 -999.25 0.6132 0.5249 
7471.500 
  8.88 -999.25 -999.25 -999.25 -999.25 94.1755 0.615014 69.4872 0.6333 1.7783 
  -999.25 -999.25 0.6064 0.5309 
7472.000 
  8.88 -999.25 -999.25 -999.25 -999.25 96.2909 0.615014 69.4872 0.6501 1.7783 
  -999.25 -999.25 0.5842 0.5388 
7472.500 
  8.88 -999.25 -999.25 -999.25 -999.25 91.2811 0.615014 69.4872 0.7068 1.7783 
  -999.25 -999.25 0.5552 0.5612 
7473.000 
  8.88 -999.25 -999.25 -999.25 -999.25 88.9919 0.615014 69.4872 0.7168 1.7783 
  -999.25 -999.25 0.5437 0.5757 
7473.500 
  8.88 -999.25 -999.25 -999.25 -999.25 89.6331 0.615014 69.4872 0.6224 1.7783 
  -999.25 -999.25 0.5449 0.5768 
7474.000 
  8.88 -999.25 -999.25 -999.25 -999.25 89.5552 0.615014 69.4872 0.6001 1.7783 
  -999.25 -999.25 0.5026 0.4885 
7474.500 
  8.88 -999.25 -999.25 -999.25 -999.25 86.9544 0.615014 69.4872 0.7311 1.7783 
  -999.25 -999.25 0.4671 0.482 
7475.000 
  8.88 -999.25 -999.25 -999.25 -999.25 86.3911 0.615014 69.4872 0.7828 1.7783 
  -999.25 -999.25 0.4578 0.4968 
7475.500 
  8.88 -999.25 -999.25 -999.25 -999.25 85.4382 0.615014 69.4872 0.6879 1.7783 
  -999.25 -999.25 0.444 0.5255 
7476.000 
  8.88 -999.25 -999.25 -999.25 -999.25 88.087 0.615014 69.4872 0.7446 1.7783 
  -999.25 -999.25 0.4292 0.4825 
7476.500 
  8.88 -999.25 -999.25 -999.25 -999.25 84.1258 0.615014 69.4872 0.6906 1.7783 
  -999.25 -999.25 0.4457 0.5382 
7477.000 
  8.88 -999.25 -999.25 -999.25 -999.25 83.7363 0.615014 69.4872 0.5806 1.7783 
  -999.25 -999.25 0.4669 0.515 
7477.500 
  8.88 -999.25 -999.25 -999.25 -999.25 78.9182 0.615014 69.4872 0.5826 1.7783 
  -999.25 -999.25 0.4647 0.5059 
7478.000 
  8.88 -999.25 -999.25 -999.25 -999.25 75.3346 0.615014 69.4872 0.5474 1.7783 
  -999.25 -999.25 0.5072 0.5151 
7478.500 
  8.88 -999.25 -999.25 -999.25 -999.25 71.2056 0.615014 69.4872 0.6113 1.7783 
  -999.25 -999.25 0.5282 0.523 
7479.000 
  8.88 -999.25 -999.25 -999.25 -999.25 70.5884 0.615014 69.4872 0.6997 1.7783 
  -999.25 -999.25 0.5701 0.6086 
7479.500 
  8.88 -999.25 -999.25 -999.25 -999.25 71.0438 0.615014 69.4872 0.5534 1.7783 
  -999.25 -999.25 0.8128 0.8301 
7480.000 
  8.88 -999.25 -999.25 -999.25 -999.25 72.1225 0.615014 69.4872 0.7701 1.7783 
  -999.25 -999.25 0.6827 0.6131 
7480.500 
  8.88 -999.25 -999.25 -999.25 -999.25 73.9922 0.615014 69.4872 0.8339 1.7783 
  -999.25 -999.25 0.6128 0.6061 
7481.000 
  8.88 -999.25 -999.25 -999.25 -999.25 77.3481 0.615014 69.4872 0.7089 1.7783 
  -999.25 -999.25 0.5997 0.5859 
7481.500 
  8.88 -999.25 -999.25 -999.25 -999.25 81.519 0.615014 69.4872 0.8034 1.7783 
  -999.25 -999.25 0.5256 0.5463 
7482.000 
  8.88 -999.25 -999.25 -999.25 -999.25 84.3955 0.615014 69.4872 0.7532 1.7783 
  -999.25 -999.25 0.499 0.5391 
7482.500 
  8.88 -999.25 -999.25 -999.25 -999.25 85.9955 0.615014 69.4872 0.7401 1.7783 
  -999.25 -999.25 0.4777 0.5341 
7483.000 
  8.88 -999.25 -999.25 -999.25 -999.25 88.5185 0.615014 69.4872 0.7574 1.7783 
  -999.25 -999.25 0.4699 0.5494 
7483.500 
  8.88 -999.25 -999.25 -999.25 -999.25 88.6743 0.615014 69.4872 0.6539 1.7783 
  -999.25 -999.25 0.4817 0.5345 
7484.000 
  8.88 -999.25 -999.25 -999.25 -999.25 88.7162 0.615014 69.4872 0.6833 1.7783 
  -999.25 -999.25 0.4865 0.5198 
7484.500 
  8.88 -999.25 -999.25 -999.25 -999.25 86.3731 0.615014 69.4872 0.6931 1.7783 
  -999.25 -999.25 0.4792 0.5195 
7485.000 
  8.88 -999.25 -999.25 -999.25 -999.25 90.0706 0.615014 69.4872 0.6704 1.7783 
  -999.25 -999.25 0.4851 0.5323 
7485.500 
  8.88 -999.25 -999.25 -999.25 -999.25 89.9207 0.615014 69.4872 0.6829 1.7783 
  -999.25 -999.25 0.4715 0.5282 
7486.000 
  8.88 -999.25 -999.25 -999.25 -999.25 89.9986 0.615014 69.4872 0.6679 1.7783 
  -999.25 -999.25 0.4624 0.5194 
7486.500 
  8.88 -999.25 -999.25 -999.25 -999.25 86.3132 0.615014 69.4872 0.6529 1.7783 
  -999.25 -999.25 0.4825 0.4704 
7487.000 
  8.88 -999.25 -999.25 -999.25 -999.25 81.5969 0.615014 69.4872 0.6595 1.7783 
  -999.25 -999.25 0.4651 0.4518 
7487.500 
  8.88 -999.25 -999.25 -999.25 -999.25 75.5323 0.615014 69.4872 0.7429 1.7783 
  -999.25 -999.25 0.4395 0.4469 
7488.000 
  8.88 -999.25 -999.25 -999.25 -999.25 67.8737 0.615014 69.4872 1.1666 1.7783 
  -999.25 -999.25 0.4752 0.6528 
7488.500 
  8.88 -999.25 -999.25 -999.25 -999.25 67.7598 0.615014 69.4872 0.6593 1.7783 
  -999.25 -999.25 0.6966 1.0563 
7489.000 
  8.88 -999.25 -999.25 -999.25 -999.25 71.9787 0.615014 69.4872 0.3848 1.7783 
  -999.25 -999.25 0.6908 0.552 
7489.500 
  8.88 -999.25 -999.25 -999.25 -999.25 79.3557 0.615014 69.4872 0.632 1.7783 
  -999.25 -999.25 0.4913 0.4544 
7490.000 
  8.88 -999.25 -999.25 -999.25 -999.25 84.0719 0.615014 69.4872 0.6282 1.7783 
  -999.25 -999.25 0.4971 0.4508 
7490.500 
  8.88 -999.25 -999.25 -999.25 -999.25 85.1626 0.615014 69.4872 0.6303 1.7783 
  -999.25 -999.25 0.4146 0.438 
7491.000 
  8.88 -999.25 -999.25 -999.25 -999.25 78.6785 0.615014 69.4872 0.7615 1.7783 
  -999.25 -999.25 0.4113 0.4525 
7491.500 
  8.88 -999.25 -999.25 -999.25 -999.25 69.0183 0.615014 69.4872 0.8639 1.7783 
  -999.25 -999.25 0.4666 0.5854 
7492.000 
  8.88 -999.25 -999.25 -999.25 -999.25 65.4766 0.615014 69.4872 0.5827 1.7783 
  -999.25 -999.25 0.756 1.024 
7492.500 
  8.88 -999.25 -999.25 -999.25 -999.25 72.7997 0.615014 69.4872 0.6201 1.7783 
  -999.25 -999.25 0.5366 0.5369 
7493.000 
  8.88 -999.25 -999.25 -999.25 -999.25 83.1131 0.615014 69.4872 0.7059 1.7783 
  -999.25 -999.25 0.466 0.4597 
7493.500 
  8.88 -999.25 -999.25 -999.25 -999.25 84.0299 0.615014 69.4872 0.6408 1.7783 
  -999.25 -999.25 0.436 0.4372 
7494.000 
  8.88 -999.25 -999.25 -999.25 -999.25 79.5774 0.615014 69.4872 0.7017 1.7783 
  -999.25 -999.25 0.3883 0.4186 
