~Version Information
VERS.                2.00 :CWLS Log ASCII Standard
WRAP.                  NO :One line per depth step
#
~Well Information
#MNEM.UNIT               DATA                    DESCRIPTION OF MNEMONIC
#--- ---- ----------------------------------- -------------------------------
STRT.F                               8494.000 :START Depth
STOP.F                              13418.500 :STOP Depth
STEP.F                                  0.500 :STEP Length
NULL.                                -999.250 :NULL Value
DATE.                              2009-09-07 :LOG DATE
#
~Curve Information
#--- ---- ----------------------------------- -------------------------------
DEPTH.F                                        :
BVW .V/V                                      :Bound Volume Water
CARB_FLAG.UNITLESS                                     :Carbonate flag
COAL_FLAG.UNITLESS                                     :Coal flag
KLOGH.MD                                       :Calculated Horizontal Permeability From Logs
PHIF.V/V                                      :Final Porosity
SAND_FLAG.UNITLESS                                     :Sand Flag
SW  .V/V                                      :Water Saturation
VSH .V/V                                      :Volume of Shale
#
~ASCII data
# ...
10353.501 0.013 1 0 0.001 0.013014 0 1 0.0646 
10354.001 0.0019 1 0 0.001 0.001933 0 1 0.055 
10354.501 -999.25 1 0 -999.25 -999.25 1 -999.25 0.0457 
10355.001 -999.25 1 0 -999.25 -999.25 1 -999.25 0.0411 
10355.501 0.0017 1 0 0.001 0.0017 0 1 0.0421 
10356.001 0.0025 1 0 0.001 0.002549 0 1 0.044 
10356.501 0.0073 1 0 0.001 0.007315 0 1 0.044 
10357.001 0.0163 1 0 0.001 0.016256 0 1 0.0427 
10357.501 0.0207 1 0 0.001 0.020654 0 1 0.0559 
10358.001 0.0223 1 0 0.001 0.022343 0 1 0.0532 
10358.501 0.0117 1 0 0.001 0.011683 0 1 0.0619 
10359.001 0.0113 1 0 0.001 0.011345 0 1 0.0581 
10359.501 0.0041 1 0 0.001 0.004143 0 1 0.0644 
10360.001 0.0043 1 0 0.001 0.004299 0 1 0.0587 
10360.501 0.0085 1 0 0.001 0.008514 0 1 0.0622 
10361.001 0.0053 1 0 0.001 0.005313 0 1 0.0662 
10361.501 0.006 1 0 0.001 0.005975 0 1 0.0625 
10362.001 0.007 1 0 0.001 0.006996 0 1 0.0519 
10362.501 0.013 1 0 0.001 0.013002 0 1 0.0396 
10363.001 0.0151 1 0 0.001 0.015145 0 1 0.0409 
10363.501 0.0106 1 0 0.001 0.010642 0 1 0.0501 
10364.001 0.0135 1 0 0.001 0.013522 0 1 0.0635 
10364.501 0.015 1 0 0.001 0.01501 0 1 0.0661 
10365.001 0.0137 1 0 0.001 0.013743 0 1 0.0639 
10365.501 0.017 1 0 0.001 0.01696 0 1 0.0686 
10366.001 0.0198 1 0 0.001 0.019834 0 1 0.0683 
10366.501 0.0239 1 0 0.001 0.023895 0 1 0.0583 
10367.001 0.026 1 0 0.001 0.026013 0 1 0.0487 
10367.501 0.0224 1 0 0.001 0.022435 0 1 0.0577 
10368.001 0.0238 1 0 0.001 0.023751 0 1 0.0712 
10368.501 0.0237 1 0 0.001 0.023666 0 1 0.0777 
10369.001 0.0325 1 0 0.001 0.032464 0 1 0.0817 
10369.501 0.036 1 0 0.001 0.035983 0 1 0.0825 
10370.001 0.0348 1 0 0.001 0.03477 0 1 0.0884 
10370.501 0.0265 1 0 0.001 0.026499 0 1 0.0786 
10371.001 0.0273 1 0 0.001 0.027342 0 1 0.0672 
10371.501 0.0241 1 0 0.001 0.02411 0 1 0.0503 
10372.001 0.0265 1 0 0.001 0.026537 0 1 0.0443 
10372.501 0.0232 1 0 0.001 0.023247 0 1 0.0411 
10373.001 0.026 1 0 0.001 0.026023 0 1 0.0492 
10373.501 0.0342 1 0 0.001 0.034152 0 1 0.0556 
10374.001 0.0368 0 0 0.001 0.036827 0 1 0.0647 
10374.501 0.0389 0 0 0.001 0.038907 0 1 0.0649 
10375.001 0.0336 1 0 0.001 0.033608 0 1 0.0658 
10375.501 0.0313 1 0 0.001 0.031269 0 1 0.061 
10376.001 0.0225 1 0 0.001 0.022496 0 1 0.0647 
10376.501 0.0202 1 0 0.001 0.020173 0 1 0.0683 
10377.001 0.0174 1 0 0.001 0.017417 0 1 0.0621 
10377.501 0.0203 1 0 0.001 0.020292 0 1 0.0517 
10378.001 0.0148 1 0 0.001 0.014804 0 1 0.0378 
10378.501 0.0157 1 0 0.001 0.015748 0 1 0.0429 
10379.001 0.0193 1 0 0.001 0.019271 0 1 0.0545 
10379.501 0.023 1 0 0.001 0.022998 0 1 0.0683 
10380.001 0.0234 1 0 0.001 0.023375 0 1 0.0652 
10380.501 0.0179 1 0 0.001 0.017904 0 1 0.0536 
10381.001 0.0175 1 0 0.001 0.017469 0 1 0.0439 
10381.501 0.0164 1 0 0.001 0.016429 0 1 0.0457 
10382.001 0.0183 1 0 0.001 0.018299 0 1 0.0436 
10382.501 0.0199 1 0 0.001 0.01993 0 1 0.0437 
10383.001 0.0203 1 0 0.001 0.02027 0 1 0.0447 
10383.501 0.0269 1 0 0.001 0.026945 0 1 0.0462 
10384.001 0.028 1 0 0.001 0.028044 0 1 0.051 
10384.501 0.0276 1 0 0.001 0.027607 0 1 0.058 
10385.001 0.0275 1 0 0.001 0.027546 0 1 0.0604 
10385.501 0.0271 1 0 0.001 0.027101 0 1 0.0567 
10386.001 0.0327 1 0 0.001 0.032718 0 1 0.0579 
10386.501 0.036 1 0 0.001 0.036027 0 1 0.0621 
10387.001 0.0404 0 0 0.001 0.040395 0 1 0.0636 
10387.501 0.0395 0 0 0.001 0.039503 0 1 0.061 
10388.001 0.0352 1 0 0.001 0.035205 0 1 0.0649 
10388.501 0.0335 1 0 0.001 0.033463 0 1 0.0689 
10389.001 0.0379 0 0 0.001 0.037863 0 1 0.0702 
10389.501 0.0405 0 0 0.001 0.040531 0 1 0.0701 
10390.001 0.0431 0 0 0.001 0.043147 0 1 0.0656 
10390.501 0.0411 0 0 0.001 0.041119 0 1 0.0687 
10391.001 0.0433 0 0 0.001 0.043293 0 1 0.0675 
10391.501 0.0428 0 0 0.001 0.042809 0 1 0.0729 
10392.001 0.0416 0 0 0.001 0.041563 0 1 0.0653 
10392.501 0.0352 1 0 0.001 0.035177 0 1 0.0609 
10393.001 0.0318 1 0 0.001 0.03176 0 1 0.0591 
10393.501 0.0285 1 0 0.001 0.028511 0 1 0.062 
10394.001 0.0249 1 0 0.001 0.024884 0 1 0.0615 
10394.501 0.0185 1 0 0.001 0.018471 0 1 0.0643 
10395.001 0.0132 1 0 0.001 0.013231 0 1 0.0675 
10395.501 0.0123 1 0 0.001 0.012292 0 1 0.0753 
10396.001 0.0112 1 0 0.001 0.011193 0 1 0.078 
10396.501 0.0129 1 0 0.001 0.01287 0 1 0.068 
10397.001 0.0138 1 0 0.001 0.013753 0 1 0.0511 
10397.501 0.0222 1 0 0.001 0.022157 0 1 0.0519 
10398.001 0.0208 1 0 0.001 0.020787 0 1 0.0625 
10398.501 0.017 1 0 0.001 0.016973 0 1 0.0828 
10399.001 0.0122 1 0 0.001 0.012155 0 1 0.0744 
10399.501 0.0142 1 0 0.001 0.014184 0 1 0.0597 
10400.001 0.0166 1 0 0.001 0.016637 0 1 0.0417 
10400.501 0.0159 1 0 0.001 0.015876 0 1 0.0339 
10401.001 0.0146 1 0 0.001 0.014591 0 1 0.0358 
10401.501 0.0073 1 0 0.001 0.007255 0 1 0.0417 
10402.001 0.0025 1 0 0.001 0.00252 0 1 0.047 
10402.501 -999.25 1 0 -999.25 -999.25 1 -999.25 0.0516 
10403.001 -999.25 1 0 -999.25 -999.25 1 -999.25 0.0592 
10403.501 -999.25 1 0 -999.25 -999.25 1 -999.25 0.0669 
10404.001 0.0024 1 0 0.001 0.002399 0 1 0.0715 
10404.501 0.0028 1 0 0.001 0.002807 0 1 0.0675 
10405.001 0.0069 1 0 0.001 0.00692 0 1 0.0648 
10405.501 0.0069 1 0 0.001 0.006873 0 1 0.0645 
10406.001 0.0149 1 0 0.001 0.014859 0 1 0.0659 
10406.501 0.0244 1 0 0.001 0.024424 0 1 0.065 
10407.001 0.0263 1 0 0.001 0.026327 0 1 0.0568 
10407.501 0.0242 1 0 0.001 0.024165 0 1 0.0459 
10408.001 0.0166 1 0 0.001 0.016554 0 1 0.0492 
10408.501 0.0232 1 0 0.001 0.023165 0 1 0.0583 
10409.001 0.0208 1 0 0.001 0.020831 0 1 0.0707 
10409.501 0.0263 1 0 0.001 0.026318 0 1 0.0636 
10410.001 0.0299 1 0 0.001 0.029931 0 1 0.0668 
10410.501 0.0367 0 0 0.001 0.036661 0 1 0.068 
10411.001 0.0375 0 0 0.001 0.037451 0 1 0.0789 
10411.501 0.0362 0 0 0.001 0.036242 0 1 0.0666 
10412.001 0.0384 0 0 0.001 0.038409 0 1 0.0504 
10412.501 0.0456 0 0 0.001 0.045569 0 1 0.0358 
10413.001 0.0468 0 0 0.001 0.046841 0 1 0.0343 
10413.501 0.0458 0 0 0.001 0.045789 0 1 0.0404 
10414.001 0.0413 0 0 0.001 0.041265 0 1 0.048 
10414.501 0.038 0 0 0.001 0.038015 0 1 0.0599 
10415.001 0.0385 0 0 0.001 0.038531 0 1 0.0648 
10415.501 0.0365 0 0 0.001 0.036488 0 1 0.0525 
10416.001 0.0394 0 0 0.001 0.039391 0 1 0.0401 
10416.501 0.0348 1 0 0.001 0.034794 0 1 0.0378 
10417.001 0.0313 1 0 0.001 0.031285 0 1 0.0501 
10417.501 0.0235 1 0 0.001 0.023478 0 1 0.057 
10418.001 0.0263 1 0 0.001 0.026258 0 1 0.0527 
10418.501 0.028 1 0 0.001 0.028044 0 1 0.0525 
10419.001 0.0287 1 0 0.001 0.028656 0 1 0.0528 
10419.501 0.0283 1 0 0.001 0.028272 0 1 0.0593 
10420.001 0.0253 1 0 0.001 0.02533 0 1 0.0594 
10420.501 0.0274 1 0 0.001 0.027434 0 1 0.0635 
10421.001 0.024 1 0 0.001 0.024032 0 1 0.0619 
10421.501 0.0277 1 0 0.001 0.027654 0 1 0.0589 
10422.001 0.0247 1 0 0.001 0.024686 0 1 0.0591 
10422.501 0.0282 1 0 0.001 0.028184 0 1 0.0571 
10423.001 0.0218 1 0 0.001 0.021808 0 1 0.061 
10423.501 0.0212 1 0 0.001 0.021166 0 1 0.0609 
10424.001 0.0191 1 0 0.001 0.01906 0 1 0.0673 
10424.501 0.0263 1 0 0.001 0.026312 0 1 0.0554 
10425.001 0.0269 1 0 0.001 0.026929 0 1 0.0451 
10425.501 0.0317 1 0 0.001 0.031703 0 1 0.0379 
10426.001 0.0293 1 0 0.001 0.029266 0 1 0.0466 
10426.501 0.0338 1 0 0.001 0.033801 0 1 0.0506 
10427.001 0.0283 1 0 0.001 0.028346 0 1 0.0431 
10427.501 0.0342 1 0 0.001 0.034244 0 1 0.0452 
10428.001 0.0353 1 0 0.001 0.03526 0 1 0.039 
10428.501 0.0365 0 0 0.001 0.036488 0 1 0.0385 
10429.001 0.0319 1 0 0.001 0.031885 0 1 0.0261 
10429.501 0.0271 1 0 0.001 0.027107 0 1 0.027 
10430.001 0.0238 1 0 0.001 0.023768 0 1 0.0314 
10430.501 0.0273 1 0 0.001 0.027263 0 1 0.0422 
10431.001 0.0199 1 0 0.001 0.019904 0 1 0.0526 
10431.501 0.0202 1 0 0.001 0.020187 0 1 0.0642 
10432.001 0.0144 1 0 0.001 0.014399 0 1 0.0647 
10432.501 0.0206 1 0 0.001 0.020642 0 1 0.0631 
10433.001 0.0195 1 0 0.001 0.019486 0 1 0.0641 
10433.501 0.0201 1 0 0.001 0.02007 0 1 0.0681 
10434.001 0.0169 1 0 0.001 0.016931 0 1 0.0719 
10434.501 0.0179 1 0 0.001 0.017851 0 1 0.0691 
10435.001 0.0204 1 0 0.001 0.02039 0 1 0.0582 
10435.501 0.0207 1 0 0.001 0.020656 0 1 0.0506 
10436.001 0.0237 1 0 0.001 0.023735 0 1 0.0549 
10436.501 0.028 1 0 0.001 0.027981 0 1 0.0613 
