~Version Information
VERS.                2.00 :CWLS Log ASCII Standard
WRAP.                 YES :Multiple lines per depth step
#
~Well Information
#MNEM.UNIT               DATA                    DESCRIPTION OF MNEMONIC
#--- ---- ----------------------------------- -------------------------------
STRT.F                                  0.000 :START Depth
STOP.F                              13418.500 :STOP Depth
STEP.F                                  0.500 :STEP Length
NULL.                                -999.250 :NULL Value
DATE.                              2009-09-07 :LOG DATE
#
~Curve Information
#--- ---- ----------------------------------- -------------------------------
DEPTH.F                                        :
CALI.IN                                       :Ultrasonic Caliper Average Diameter
DRHB.G/CC                                     :Bulk Density Correction  Bottom
DRHO.G/CC                                     :Bulk Density Correction
DRHU.G/CC                                     :Bulk Density Correction  Up
DT  .US/F                                     :Delta-T Compressional
GR  .GAPI                                     :Gamma Ray
NPHI.V/V                                      :Neutron Porosity
PEF .B/E                                      :Photoelectric Factor Bottom
RD  .OHMM                                     :Deep Resistivity
RHOB.G/CC                                     :Bulk Density
ROBB.G/CC                                     :Bulk Density  Bottom
ROBU.G/CC                                     :Bulk Density  Up
RS  .OHMM                                     :Shallow Resistivity
RT  .OHMM                                     :True Resistivity
#
~ASCII data
# ...
9787.001 
  8.9095 -999.25 0.004601 -999.25 89.467 49.4568 0.285811 3.8647 1.8073 2.447 
  -999.25 -999.25 1.9743 3.2986 
9787.501 
  8.9065 -999.25 0.021762 -999.25 89.056 48.0235 0.275552 4.3203 1.7649 2.4486 
  -999.25 -999.25 1.992 3.1863 
9788.001 
  8.8865 -999.25 0.042461 -999.25 89.0285 45.4095 0.273118 4.7439 1.8747 2.453 
  -999.25 -999.25 1.9896 3.3379 
9788.501 
  8.8964 -999.25 0.045835 -999.25 90.8411 45.4805 0.279665 4.742 1.9079 2.45 
  -999.25 -999.25 2.0127 3.4586 
9789.001 
  8.8203 -999.25 0.030538 -999.25 92.1487 45.1217 0.280206 4.2727 1.8477 2.4439 
  -999.25 -999.25 2.0672 3.3968 
9789.501 
  8.7256 -999.25 0.011008 -999.25 91.0684 47.029 0.252362 3.8674 1.8738 2.4379 
  -999.25 -999.25 1.9639 3.4075 
9790.001 
  8.7013 -999.25 0.00455 -999.25 92.4102 45.1902 0.279949 3.7572 1.8716 2.4415 
  -999.25 -999.25 1.9765 3.2664 
9790.501 
  8.7016 -999.25 0.004017 -999.25 91.4746 46.6341 0.268827 3.7842 1.8504 2.4472 
  -999.25 -999.25 1.9789 3.4452 
9791.001 
  8.6852 -999.25 0.00153 -999.25 90.8006 46.5134 0.256548 3.8278 1.8566 2.4458 
  -999.25 -999.25 1.9867 3.5153 
9791.501 
  8.6952 -999.25 0.000476 -999.25 89.7097 47.8604 0.273689 3.8994 1.7521 2.4418 
  -999.25 -999.25 1.9972 3.4585 
9792.001 
  8.6811 -999.25 -0.001661 -999.25 88.0482 48.1857 0.279396 3.9368 1.732 2.4339 
  -999.25 -999.25 1.9592 3.1783 
9792.501 
  8.7328 -999.25 -0.000671 -999.25 87.4428 50.1554 0.283464 3.9953 1.6882 2.4352 
  -999.25 -999.25 1.964 3.1047 
9793.001 
  8.7768 -999.25 -0.000542 -999.25 86.8409 51.8033 0.28867 3.9518 1.6937 2.4385 
  -999.25 -999.25 1.9426 3.1847 
9793.501 
  8.7957 -999.25 0.001537 -999.25 86.5043 53.3438 0.2772 3.9955 1.6756 2.4452 
  -999.25 -999.25 1.9091 2.9563 
9794.001 
  8.8254 -999.25 0.011124 -999.25 86.3612 52.2549 0.293272 4.2181 1.646 2.4547 
  -999.25 -999.25 1.863 2.788 
9794.501 
  8.8706 -999.25 0.018994 -999.25 87.5316 53.3678 0.293149 4.4629 1.6736 2.4567 
  -999.25 -999.25 1.8413 2.664 
9795.001 
  8.9021 -999.25 0.035976 -999.25 88.1163 53.2728 0.300343 5.0027 1.6922 2.4579 
  -999.25 -999.25 1.8155 2.5227 
9795.501 
  8.8889 -999.25 0.062517 -999.25 85.8766 53.6577 0.301686 5.4172 1.7352 2.465 
  -999.25 -999.25 1.8129 2.4911 
9796.001 
  8.9465 -999.25 0.076971 -999.25 82.2023 53.3179 0.296392 5.9592 1.8151 2.4603 
  -999.25 -999.25 1.865 2.4016 
9796.501 
  8.8974 -999.25 0.064674 -999.25 80.766 54.1811 0.32111 5.5344 1.8919 2.4544 
  -999.25 -999.25 1.8343 2.3721 
9797.001 
  8.8779 -999.25 0.045958 -999.25 80.0855 55.6092 0.33849 5.3953 1.9766 2.4427 
  -999.25 -999.25 1.8204 2.2989 
9797.501 
  8.8215 -999.25 0.037483 -999.25 76.4125 55.5234 0.326519 5.0866 2.0425 2.4362 
  -999.25 -999.25 1.7128 2.1958 
9798.001 
  8.8707 -999.25 0.046007 -999.25 72.9278 54.9753 0.33101 5.6222 2.1929 2.4356 
  -999.25 -999.25 1.6834 2.0693 
9798.501 
  8.9468 -999.25 0.070288 -999.25 71.6739 53.0597 0.328476 6.5187 2.3785 2.4291 
  -999.25 -999.25 1.6492 2.0417 
9799.001 
  8.9959 -999.25 0.127558 -999.25 71.8272 53.8894 0.326315 8.35 2.8352 2.4161 
  -999.25 -999.25 1.6968 2.0063 
9799.501 
  9.0386 -999.25 0.200635 -999.25 72.9751 54.1582 0.33421 10.0517 2.8013 2.4077 
  -999.25 -999.25 1.8009 2.6311 
9800.001 
  9.119 -999.25 0.237346 -999.25 72.9751 54.3181 0.299461 10.9086 2.8378 2.3991 
  -999.25 -999.25 1.8885 2.9296 
9800.501 
  9.0291 -999.25 0.22515 -999.25 73.2806 52.0612 0.317877 10.2788 2.7593 2.3969 
  -999.25 -999.25 2.1181 3.2201 
9801.001 
  9.0032 -999.25 0.177644 -999.25 74.5591 51.4785 0.31441 9.1926 3.17 2.3931 
  -999.25 -999.25 2.3199 3.3196 
9801.501 
  9.0469 -999.25 0.18177 -999.25 75.5713 51.6821 0.275746 9.0379 3.118 2.4342 
  -999.25 -999.25 3.0488 3.2667 
9802.001 
  9.0947 -999.25 0.191926 -999.25 74.521 50.3484 0.221352 9.2324 2.9347 2.4704 
  -999.25 -999.25 4.2115 6.9275 
9802.501 
  9.0521 -999.25 0.228508 -999.25 73.1942 46.2035 0.233135 9.6776 2.6462 2.5075 
  -999.25 -999.25 5.3265 10.6759 
9803.001 
  8.9736 -999.25 0.230184 -999.25 72.0624 41.2717 0.175606 10.1275 2.7538 2.5264 
  -999.25 -999.25 6.5657 10.7964 
9803.501 
  8.8579 -999.25 0.208128 -999.25 72.3676 37.2938 0.165301 9.7531 3.0574 2.5172 
  -999.25 -999.25 10.7754 8.6057 
9804.001 
  8.7805 -999.25 0.130329 -999.25 73.0541 35.4993 0.155176 7.363 3.5279 2.4959 
  -999.25 -999.25 19.1194 9.2094 
9804.501 
  8.6826 -999.25 0.062854 -999.25 72.0466 35.2677 0.134187 5.83 4.2746 2.5324 
  -999.25 -999.25 20.4329 12.0992 
9805.001 
  8.6818 -999.25 0.004645 -999.25 68.9892 35.6866 0.107528 5.2356 4.0895 2.6086 
  -999.25 -999.25 6.2643 5.2899 
9805.501 
  8.6719 -999.25 -0.009066 -999.25 67.2977 34.4453 0.084828 5.1253 3.9811 2.7121 
  -999.25 -999.25 4.0117 3.115 
9806.001 
  8.7688 -999.25 -0.009027 -999.25 66.4466 32.2475 0.070742 4.66 4.0587 2.7657 
  -999.25 -999.25 4.565 3.7459 
9806.501 
  8.6729 -999.25 0.005348 -999.25 67.9605 30.9238 0.060698 4.2792 4.0696 2.774 
  -999.25 -999.25 5.1063 4.4864 
9807.001 
  8.6045 -999.25 0.0112 -999.25 68.3376 30.9811 0.055058 4.2875 4.1753 2.7591 
  -999.25 -999.25 5.4057 4.4261 
9807.501 
  8.616 -999.25 -0.015602 -999.25 67.9451 30.992 0.058593 4.5802 4.0845 2.7078 
  -999.25 -999.25 5.7876 4.9685 
9808.001 
  8.6228 -999.25 -0.011123 -999.25 68.1086 30.6586 0.064587 4.9508 3.6642 2.6526 
  -999.25 -999.25 5.4852 5.1513 
9808.501 
  8.6567 -999.25 0.005839 -999.25 68.8837 29.2681 0.08178 5.2239 3.6154 2.5841 
  -999.25 -999.25 4.9278 4.7911 
9809.001 
  8.6416 -999.25 0.030706 -999.25 69.2228 27.521 0.092336 5.4428 3.3166 2.5493 
  -999.25 -999.25 4.2939 4.3637 
9809.501 
  8.5991 -999.25 0.031207 -999.25 67.8365 24.7039 0.106217 5.4117 3.3512 2.5209 
  -999.25 -999.25 3.7647 3.8083 
9810.001 
  8.5506 -999.25 0.02767 -999.25 68.3031 21.208 0.118174 5.3502 3.418 2.5131 
  -999.25 -999.25 3.5524 3.7403 
9810.501 
  8.5147 -999.25 0.029046 -999.25 69.2941 17.0681 0.130619 5.2819 3.4152 2.5083 
  -999.25 -999.25 3.3439 3.582 
9811.001 
  8.4883 -999.25 0.028898 -999.25 67.9971 13.9557 0.139449 5.2764 3.273 2.5037 
  -999.25 -999.25 3.0584 3.4064 
9811.501 
  8.5353 -999.25 0.025608 -999.25 67.5253 13.3081 0.142607 5.2218 3.3759 2.4957 
  -999.25 -999.25 2.9741 3.1743 
9812.001 
  8.5515 -999.25 0.031603 -999.25 68.9913 14.1132 0.147796 5.285 3.2478 2.4973 
  -999.25 -999.25 2.8977 3.1222 
9812.501 
  8.5734 -999.25 0.026677 -999.25 68.8892 14.8678 0.142569 5.2536 3.1992 2.4911 
  -999.25 -999.25 2.8756 3.0146 
9813.001 
  8.545 -999.25 0.021342 -999.25 66.5887 14.3281 0.141554 5.2334 3.333 2.4874 
  -999.25 -999.25 2.9736 3.1588 
9813.501 
  8.5394 -999.25 0.011676 -999.25 65.8017 14.5709 0.142624 5.1688 3.2767 2.4908 
  -999.25 -999.25 2.941 3.0452 
9814.001 
  8.5497 -999.25 0.009021 -999.25 67.492 15.3788 0.139361 5.1584 3.2621 2.5053 
  -999.25 -999.25 2.9239 3.0911 
9814.501 
  8.5356 -999.25 0.009549 -999.25 68.2615 16.5098 0.136727 5.084 3.1937 2.5174 
  -999.25 -999.25 2.9293 3.1 
9815.001 
  8.5132 -999.25 0.008389 -999.25 67.5146 16.9291 0.138521 4.9857 3.1528 2.5208 
  -999.25 -999.25 2.9249 3.1574 
9815.501 
  8.529 -999.25 0.002032 -999.25 69.5836 16.6612 0.137637 4.8937 3.1948 2.5104 
  -999.25 -999.25 2.939 3.0536 
9816.001 
  8.5148 -999.25 0.001443 -999.25 68.1152 16.9173 0.140663 4.9842 3.1171 2.5076 
  -999.25 -999.25 2.9162 3.0353 
9816.501 
  8.5213 -999.25 0.001045 -999.25 69.7188 16.9187 0.138665 5.1015 3.1563 2.4998 
  -999.25 -999.25 2.9234 3.0153 
9817.001 
  8.5291 -999.25 0.004696 -999.25 69.8369 15.8149 0.136165 5.154 3.128 2.5012 
  -999.25 -999.25 2.9125 3.062 
9817.501 
  8.5474 -999.25 0.001107 -999.25 69.0436 15.1218 0.136627 5.0821 3.1675 2.4962 
  -999.25 -999.25 2.9115 3.0901 
9818.001 
  8.5531 -999.25 0.001577 -999.25 69.8742 14.0339 0.138185 5.0216 3.1335 2.4984 
  -999.25 -999.25 2.946 3.0967 
9818.501 
  8.5524 -999.25 0.010957 -999.25 70.4481 14.8368 0.138563 5.3349 3.1333 2.5079 
  -999.25 -999.25 2.97 3.071 
9819.001 
  8.5822 -999.25 0.032978 -999.25 69.9545 15.3402 0.136162 5.698 3.1891 2.5285 
  -999.25 -999.25 2.9957 3.0925 
