~Version Information
VERS.                2.00 :CWLS Log ASCII Standard
WRAP.                  NO :One line per depth step
#
~Well Information
#MNEM.UNIT               DATA                    DESCRIPTION OF MNEMONIC
#--- ---- ----------------------------------- -------------------------------
STRT.F                               8494.000 :START Depth
STOP.F                              13418.500 :STOP Depth
STEP.F                                  0.500 :STEP Length
NULL.                                -999.250 :NULL Value
DATE.                              2009-09-07 :LOG DATE
#
~Curve Information
#--- ---- ----------------------------------- -------------------------------
DEPTH.F                                        :
BVW .V/V                                      :Bound Volume Water
CARB_FLAG.UNITLESS                                     :Carbonate flag
COAL_FLAG.UNITLESS                                     :Coal flag
KLOGH.MD                                       :Calculated Horizontal Permeability From Logs
PHIF.V/V                                      :Final Porosity
SAND_FLAG.UNITLESS                                     :Sand Flag
SW  .V/V                                      :Water Saturation
VSH .V/V                                      :Volume of Shale
#
~ASCII data
# ...
9697.001 0.1052 0 0 2661.41 0.273497 1 0.3847 0.0848 
9697.501 0.1029 0 0 3917.72 0.296899 1 0.3467 0.0869 
9698.001 0.1026 0 0 4742.7 0.310846 1 0.3301 0.0901 
9698.501 0.114 0 0 4043.21 0.316609 1 0.3602 0.1029 
9699.001 0.1154 0 0 3919.25 0.317042 1 0.364 0.1048 
9699.501 0.123 0 0 3424.6 0.313429 1 0.3924 0.1081 
9700.001 0.1385 0 0 2760.92 0.309661 1 0.4474 0.1151 
9700.501 0.159 0 0 2879.96 0.309444 1 0.5137 0.1129 
9701.001 0.1782 0 0 3081.3 0.308038 1 0.5786 0.1084 
9701.501 0.1846 0 0 3831.46 0.30852 1 0.5985 0.0983 
9702.001 0.1912 0 0 4002.23 0.306206 1 0.6244 0.0941 
9702.501 0.2049 0 0 3220.92 0.305151 1 0.6715 0.1037 
9703.001 0.2018 0 0 3196.57 0.302339 1 0.6676 0.1016 
9703.501 0.2079 0 0 2412.26 0.30287 1 0.6866 0.1156 
9704.001 0.2134 0 0 2327.53 0.301416 1 0.7081 0.116 
9704.501 0.2151 0 0 2531.44 0.300406 1 0.716 0.1111 
9705.001 0.2088 0 0 2966.25 0.296726 1 0.7038 0.1002 
9705.501 0.2108 0 0 2667.27 0.296021 1 0.7121 0.1047 
9706.001 0.208 0 0 1991.1 0.292128 1 0.7122 0.1153 
9706.501 0.2008 0 0 1821.8 0.289211 1 0.6942 0.117 
9707.001 0.2006 0 0 1949.44 0.288437 1 0.6954 0.1131 
9707.501 0.1925 0 0 1792.46 0.294503 1 0.6535 0.1225 
9708.001 0.1864 0 0 1304.45 0.296155 1 0.6295 0.1393 
9708.501 0.1661 0 0 1055.23 0.297394 1 0.5585 0.1506 
9709.001 0.1537 0 0 943.432 0.293038 1 0.5245 0.1522 
9709.501 0.1439 0 0 805.444 0.290373 1 0.4955 0.1574 
9710.001 0.1473 0 0 688.839 0.285144 1 0.5166 0.1603 
9710.501 0.143 0 0 442.418 0.280807 1 0.5093 0.1778 
9711.001 0.128 0 0 255.437 0.262223 1 0.4882 0.1878 
9711.501 0.1121 0 0 76.5464 0.231929 1 0.4834 0.2191 
9712.001 0.0995 0 0 14.5285 0.192935 1 0.5157 0.2646 
9712.501 0.088 0 0 3.2466 0.165824 1 0.5309 0.3128 
9713.001 0.0803 0 0 1.1082 0.150513 1 0.5334 0.3511 
9713.501 0.0796 0 0 0.599 0.141565 1 0.5623 0.3728 
9714.001 0.0757 0 0 0.2294 0.135528 1 0.5589 0.4137 
9714.501 0.0762 0 0 0.052 0.12444 1 0.6122 0.4755 
9715.001 0.0747 0 0 0.0145 0.119346 0 0.6261 0.5326 
9715.501 0.0753 0 0 0.0084 0.113606 0 0.6626 0.554 
9716.001 0.0763 0 0 0.0106 0.115315 0 0.6615 0.544 
9716.501 0.0753 0 0 0.0238 0.110446 0 0.6818 0.5008 
9717.001 0.076 0 0 0.0369 0.101596 1 0.7484 0.4718 
9717.501 0.0726 1 0 0.065 0.093924 0 0.773 0.4376 
9718.001 0.0712 1 0 0.0936 0.090477 0 0.7872 0.4169 
9718.501 0.0729 0 0 0.1533 0.098575 0 0.7393 0.4003 
9719.001 0.0723 0 0 0.269 0.109242 1 0.6615 0.3827 
9719.501 0.078 0 0 0.293 0.113281 1 0.6882 0.3822 
9720.001 0.0799 0 0 0.3529 0.117986 1 0.6771 0.3774 
9720.501 0.0817 0 0 0.3396 0.112789 1 0.7242 0.3746 
9721.001 0.0814 0 0 0.4205 0.123654 1 0.6584 0.3739 
9721.501 0.0867 0 0 0.3391 0.116095 1 0.7472 0.3776 
9722.001 0.0846 0 0 0.2812 0.108122 1 0.7826 0.3795 
9722.501 0.0849 0 0 0.2653 0.10152 1 0.8363 0.3765 
9723.001 0.0843 0 0 0.4137 0.100036 1 0.8424 0.3537 
9723.501 0.083 1 0 0.4072 0.096321 0 0.862 0.3512 
9724.001 0.0819 1 0 0.4686 0.091391 0 0.8961 0.34 
9724.501 0.0801 1 0 0.4242 0.090087 0 0.8896 0.3437 
9725.001 0.0786 1 0 0.5864 0.087114 0 0.9017 0.3254 
9725.501 0.0752 1 0 0.7622 0.086208 0 0.8718 0.312 
9726.001 0.0725 1 0 1.0614 0.082803 0 0.8762 0.2929 
9726.501 0.0699 1 0 1.4601 0.090525 0 0.7721 0.2844 
9727.001 0.0707 1 0 1.8464 0.095288 0 0.742 0.2773 
9727.501 0.0726 0 0 2.0927 0.100592 1 0.7222 0.276 
9728.001 0.0702 1 0 2.1957 0.095825 0 0.7331 0.2694 
9728.501 0.0699 1 0 1.759 0.087091 0 0.8031 0.2724 
9729.001 0.0691 1 0 1.935 0.088152 0 0.7843 0.2687 
9729.501 0.0698 1 0 2.0999 0.09174 0 0.7606 0.268 
9730.001 0.072 0 0 2.5878 0.100455 1 0.7164 0.2656 
9730.501 0.0725 0 0 2.914 0.106432 1 0.6812 0.2652 
9731.001 0.0741 0 0 3.1112 0.110445 1 0.6712 0.2656 
9731.501 0.0745 0 0 3.4103 0.114222 1 0.6522 0.2646 
9732.001 0.0752 0 0 3.0527 0.111889 1 0.6718 0.2678 
9732.501 0.082 0 0 3.0855 0.116584 1 0.7032 0.2715 
9733.001 0.0872 0 0 4.1733 0.124952 1 0.6978 0.2643 
9733.501 0.0894 0 0 6.1708 0.141708 1 0.6305 0.2604 
9734.001 0.0951 0 0 8.2124 0.153515 1 0.6195 0.2571 
9734.501 0.0977 0 0 8.1738 0.157934 1 0.6187 0.2612 
9735.001 0.1036 0 0 7.6463 0.154115 1 0.6725 0.2611 
9735.501 0.1146 0 0 7.3647 0.153759 1 0.7452 0.2625 
9736.001 0.121 0 0 4.035 0.13736 1 0.8812 0.277 
9736.501 0.115 0 0 2.3631 0.131345 1 0.8758 0.2975 
9737.001 0.1093 0 0 1.1908 0.124488 1 0.8783 0.3245 
9737.501 0.1008 0 0 1.1627 0.132341 1 0.762 0.3326 
9738.001 0.1037 0 0 1.0073 0.136219 1 0.7609 0.343 
9738.501 0.1075 0 0 1.0636 0.13761 1 0.7809 0.3416 
9739.001 0.0995 0 0 1.1815 0.135864 1 0.7324 0.3349 
9739.501 0.0942 0 0 1.1639 0.130394 1 0.7223 0.3308 
9740.001 0.0829 0 0 1.1426 0.121991 1 0.6797 0.3242 
9740.501 0.0833 0 0 1.029 0.112424 1 0.7407 0.3208 
9741.001 0.0668 0 0 1.2036 0.098616 0 0.6776 0.3009 
9741.501 0.0536 1 0 1.6406 0.087075 0 0.6158 0.2757 
9742.001 0.048 1 0 3.0411 0.090417 0 0.531 0.2489 
9742.501 0.0478 0 0 13.0207 0.114374 1 0.4183 0.2 
9743.001 0.0524 0 0 49.202 0.139891 1 0.3747 0.1586 
9743.501 0.052 0 0 126.093 0.15281 1 0.3406 0.1246 
9744.001 0.0539 0 0 145.616 0.151668 1 0.3557 0.1167 
9744.501 0.0542 0 0 155.373 0.145929 1 0.3716 0.1085 
9745.001 0.0606 0 0 190.782 0.143905 1 0.4213 0.0967 
9745.501 0.0626 0 0 211.058 0.148926 1 0.4205 0.0963 
9746.001 0.0666 0 0 238.086 0.154789 1 0.4303 0.0957 
9746.501 0.0649 0 0 214.305 0.159286 1 0.4073 0.1048 
9747.001 0.0627 0 0 226.716 0.158663 1 0.3949 0.1015 
9747.501 0.0614 0 0 237.478 0.155206 1 0.3954 0.0962 
9748.001 0.0596 0 0 203.212 0.146138 1 0.4081 0.0957 
9748.501 0.0603 0 0 183.108 0.133786 1 0.4508 0.0897 
9749.001 0.0636 0 0 126.524 0.12683 1 0.5017 0.1014 
9749.501 0.0636 0 0 118.828 0.130791 1 0.4866 0.1079 
9750.001 0.0661 0 0 120.477 0.143959 1 0.459 0.119 
9750.501 0.0661 0 0 197.409 0.15928 1 0.4149 0.1088 
9751.001 0.0684 0 0 292.059 0.167137 1 0.4091 0.0968 
9751.501 0.0685 0 0 396.364 0.172 1 0.398 0.0864 
9752.001 0.067 0 0 591.146 0.181283 1 0.3694 0.0754 
9752.501 0.0654 0 0 938.575 0.194038 1 0.3372 0.0644 
9753.001 0.0599 0 0 905.769 0.203924 1 0.2938 0.0749 
9753.501 0.054 0 0 878.939 0.208507 1 0.259 0.0805 
9754.001 0.0577 0 0 577.54 0.204031 1 0.2827 0.0967 
9754.501 0.0557 0 0 636.818 0.207086 1 0.269 0.0947 
9755.001 0.06 0 0 606.197 0.203762 1 0.2944 0.0942 
9755.501 0.0618 0 0 830.428 0.210129 1 0.2943 0.0846 
9756.001 0.0631 0 0 798.783 0.20954 1 0.3012 0.086 
9756.501 0.066 0 0 638.418 0.213156 1 0.3095 0.1 
9757.001 0.0705 0 0 477.604 0.21622 1 0.3261 0.1167 
9757.501 0.0882 0 0 458.466 0.22026 1 0.4005 0.1223 
9758.001 0.0957 0 0 492.569 0.22151 1 0.4319 0.12 
9758.501 0.1011 0 0 543.007 0.225861 1 0.4475 0.1191 
9759.001 0.1001 0 0 620.249 0.229831 1 0.4355 0.1162 
9759.501 0.1059 0 0 535.146 0.231012 1 0.4586 0.1244 
9760.001 0.1053 0 0 464.93 0.224142 1 0.47 0.1251 
9760.501 0.1049 0 0 390.964 0.211177 1 0.4969 0.1219 
9761.001 0.1026 0 0 352.543 0.2023 1 0.5069 0.119 
9761.501 0.1053 0 0 249.882 0.191964 1 0.5484 0.1264 
9762.001 0.1099 0 0 159.942 0.178495 1 0.6155 0.136 
9762.501 0.1107 0 0 82.1621 0.158609 1 0.698 0.1505 
9763.001 0.115 0 0 76.9903 0.151991 1 0.7563 0.1477 
9763.501 0.118 0 0 48.6564 0.159081 1 0.7419 0.1762 
9764.001 0.118 0 0 31.229 0.175416 1 0.6726 0.2121 
9764.501 0.1252 0 0 15.7736 0.195804 1 0.6393 0.2632 
9765.001 0.1301 0 0 8.4371 0.204555 1 0.636 0.3011 
9765.501 0.1345 0 0 5.0612 0.210431 1 0.6389 0.331 
9766.001 0.1315 0 0 3.9139 0.208 1 0.632 0.3413 
9766.501 0.1381 0 0 5.2334 0.209548 1 0.6588 0.3286 
9767.001 0.1469 0 0 8.8036 0.214471 1 0.685 0.3079 
9767.501 0.1429 0 0 7.5502 0.212274 1 0.6733 0.3134 
9768.001 0.1369 0 0 6.3195 0.211851 1 0.6463 0.3216 
9768.501 0.1419 0 0 4.6453 0.209863 1 0.6762 0.3347 
9769.001 0.1349 0 0 5.6233 0.213125 1 0.6328 0.3283 
9769.501 0.124 0 0 6.0257 0.211436 1 0.5865 0.3235 
9770.001 0.1342 0 0 7.459 0.211346 1 0.6348 0.3131 
9770.501 0.1174 0 0 9.7861 0.207496 1 0.5658 0.2966 
9771.001 0.1035 0 0 14.5875 0.203742 1 0.5082 0.274 
9771.501 0.1102 0 0 21.1559 0.201758 1 0.5464 0.2543 
9772.001 0.1102 0 0 34.5369 0.198258 1 0.5557 0.2275 
9772.501 0.1042 0 0 38.3002 0.189031 1 0.5515 0.2143 
