~Version Information
VERS.                2.00 :CWLS Log ASCII Standard
WRAP.                 YES :Multiple lines per depth step
#
~Well Information
#MNEM.UNIT               DATA                    DESCRIPTION OF MNEMONIC
#--- ---- ----------------------------------- -------------------------------
STRT.F                                  0.000 :START Depth
STOP.F                              13418.500 :STOP Depth
STEP.F                                  0.500 :STEP Length
NULL.                                -999.250 :NULL Value
DATE.                              2009-09-07 :LOG DATE
#
~Curve Information
#--- ---- ----------------------------------- -------------------------------
DEPTH.F                                        :
CALI.IN                                       :Ultrasonic Caliper Average Diameter
DRHB.G/CC                                     :Bulk Density Correction  Bottom
DRHO.G/CC                                     :Bulk Density Correction
DRHU.G/CC                                     :Bulk Density Correction  Up
DT  .US/F                                     :Delta-T Compressional
GR  .GAPI                                     :Gamma Ray
NPHI.V/V                                      :Neutron Porosity
PEF .B/E                                      :Photoelectric Factor Bottom
RD  .OHMM                                     :Deep Resistivity
RHOB.G/CC                                     :Bulk Density
ROBB.G/CC                                     :Bulk Density  Bottom
ROBU.G/CC                                     :Bulk Density  Up
RS  .OHMM                                     :Shallow Resistivity
RT  .OHMM                                     :True Resistivity
#
~ASCII data
# ...
6273.500 
  8.88 -999.25 -999.25 -999.25 -999.25 114.245 0.615014 69.4872 1.0008 1.7783 
  -999.25 -999.25 0.7196 0.7653 
6274.000 
  8.88 -999.25 -999.25 -999.25 -999.25 113.166 0.615014 69.4872 1.1131 1.7783 
  -999.25 -999.25 0.7117 0.7539 
6274.500 
  8.88 -999.25 -999.25 -999.25 -999.25 111.65 0.615014 69.4872 1.0372 1.7783 
  -999.25 -999.25 0.7232 0.7905 
6275.000 
  8.88 -999.25 -999.25 -999.25 -999.25 111.962 0.615014 69.4872 1.0195 1.7783 
  -999.25 -999.25 0.7229 0.7899 
6275.500 
  8.88 -999.25 -999.25 -999.25 -999.25 112.675 0.615014 69.4872 1.0785 1.7783 
  -999.25 -999.25 0.7215 0.7649 
6276.000 
  8.88 -999.25 -999.25 -999.25 -999.25 113.232 0.615014 69.4872 1.0905 1.7783 
  -999.25 -999.25 0.7203 0.7609 
6276.500 
  8.88 -999.25 -999.25 -999.25 -999.25 114.353 0.615014 69.4872 1.0963 1.7783 
  -999.25 -999.25 0.7198 0.7831 
6277.000 
  8.88 -999.25 -999.25 -999.25 -999.25 116.12 0.615014 69.4872 1.0602 1.7783 
  -999.25 -999.25 0.7324 0.7898 
6277.500 
  8.88 -999.25 -999.25 -999.25 -999.25 119.219 0.615014 69.4872 1.053 1.7783 
  -999.25 -999.25 0.7466 0.7943 
6278.000 
  8.88 -999.25 -999.25 -999.25 -999.25 122.683 0.615014 69.4872 1.0529 1.7783 
  -999.25 -999.25 0.7497 0.8106 
6278.500 
  8.88 -999.25 -999.25 -999.25 -999.25 125.757 0.615014 69.4872 1.1112 1.7783 
  -999.25 -999.25 0.7501 0.8004 
6279.000 
  8.88 -999.25 -999.25 -999.25 -999.25 125.349 0.615014 69.4872 1.0533 1.7783 
  -999.25 -999.25 0.7534 0.8244 
6279.500 
  8.88 -999.25 -999.25 -999.25 -999.25 122.011 0.615014 69.4872 1.0556 1.7783 
  -999.25 -999.25 0.7475 0.7943 
6280.000 
  8.88 -999.25 -999.25 -999.25 -999.25 119.015 0.615014 69.4872 1.0881 1.7783 
  -999.25 -999.25 0.7414 0.7892 
6280.500 
  8.88 -999.25 -999.25 -999.25 -999.25 116.666 0.615014 69.4872 1.1146 1.7783 
  -999.25 -999.25 0.7394 0.7892 
6281.000 
  8.88 -999.25 -999.25 -999.25 -999.25 112.795 0.615014 69.4872 1.046 1.7783 
  -999.25 -999.25 0.7429 0.813 
6281.500 
  8.88 -999.25 -999.25 -999.25 -999.25 106.089 0.615014 69.4872 1.059 1.7783 
  -999.25 -999.25 0.7566 0.8042 
6282.000 
  8.88 -999.25 -999.25 -999.25 -999.25 101.804 0.615014 69.4872 1.0599 1.7783 
  -999.25 -999.25 0.764 0.7851 
6282.500 
  8.88 -999.25 -999.25 -999.25 -999.25 104.399 0.615014 69.4872 1.1292 1.7783 
  -999.25 -999.25 0.7414 0.7785 
6283.000 
  8.88 -999.25 -999.25 -999.25 -999.25 109.439 0.615014 69.4872 0.9988 1.7783 
  -999.25 -999.25 0.7339 0.7856 
6283.500 
  8.88 -999.25 -999.25 -999.25 -999.25 115.431 0.615014 69.4872 0.9706 1.7783 
  -999.25 -999.25 0.7237 0.7771 
6284.000 
  8.88 -999.25 -999.25 -999.25 -999.25 119.327 0.615014 69.4872 1.0366 1.7783 
  -999.25 -999.25 0.7194 0.7595 
6284.500 
  8.88 -999.25 -999.25 -999.25 -999.25 120.585 0.615014 69.4872 0.987 1.7783 
  -999.25 -999.25 0.7211 0.7739 
6285.000 
  8.88 -999.25 -999.25 -999.25 -999.25 118.296 0.615014 69.4872 1.0476 1.7783 
  -999.25 -999.25 0.7063 0.7566 
6285.500 
  8.88 -999.25 -999.25 -999.25 -999.25 113.442 0.615014 69.4872 0.9975 1.7783 
  -999.25 -999.25 0.7186 0.7536 
6286.000 
  8.88 -999.25 -999.25 -999.25 -999.25 111.542 0.615014 69.4872 0.9867 1.7783 
  -999.25 -999.25 0.717 0.7188 
6286.500 
  8.88 -999.25 -999.25 -999.25 -999.25 111.872 0.615014 69.4872 1.004 1.7783 
  -999.25 -999.25 0.7109 0.7236 
6287.000 
  8.88 -999.25 -999.25 -999.25 -999.25 114.293 0.615014 69.4872 1.076 1.7783 
  -999.25 -999.25 0.7048 0.7248 
6287.500 
  8.88 -999.25 -999.25 -999.25 -999.25 117.157 0.615014 69.4872 1.08 1.7783 
  -999.25 -999.25 0.712 0.7645 
6288.000 
  8.88 -999.25 -999.25 -999.25 -999.25 117.948 0.615014 69.4872 0.9773 1.7783 
  -999.25 -999.25 0.7301 0.791 
6288.500 
  8.88 -999.25 -999.25 -999.25 -999.25 114.538 0.615014 69.4872 0.9501 1.7783 
  -999.25 -999.25 0.7378 0.7991 
6289.000 
  8.88 -999.25 -999.25 -999.25 -999.25 108.132 0.615014 69.4872 0.9709 1.7783 
  -999.25 -999.25 0.7247 0.7593 
6289.500 
  8.88 -999.25 -999.25 -999.25 -999.25 104.447 0.615014 69.4872 0.9508 1.7783 
  -999.25 -999.25 0.7091 0.7295 
6290.000 
  8.88 -999.25 -999.25 -999.25 -999.25 106.664 0.615014 69.4872 0.9743 1.7783 
  -999.25 -999.25 0.6917 0.6869 
6290.500 
  8.88 -999.25 -999.25 -999.25 -999.25 110.344 0.615014 69.4872 0.9956 1.7783 
  -999.25 -999.25 0.6746 0.6767 
6291.000 
  8.88 -999.25 -999.25 -999.25 -999.25 113.969 0.615014 69.4872 0.9793 1.7783 
  -999.25 -999.25 0.6783 0.7048 
6291.500 
  8.88 -999.25 -999.25 -999.25 -999.25 115.228 0.615014 69.4872 0.9058 1.7783 
  -999.25 -999.25 0.691 0.7259 
6292.000 
  8.88 -999.25 -999.25 -999.25 -999.25 114.682 0.615014 69.4872 0.9104 1.7783 
  -999.25 -999.25 0.6906 0.7194 
6292.500 
  8.88 -999.25 -999.25 -999.25 -999.25 111.518 0.615014 69.4872 0.9048 1.7783 
  -999.25 -999.25 0.6826 0.6991 
6293.000 
  8.88 -999.25 -999.25 -999.25 -999.25 107.347 0.615014 69.4872 0.9351 1.7783 
  -999.25 -999.25 0.6658 0.6927 
6293.500 
  8.88 -999.25 -999.25 -999.25 -999.25 105.675 0.615014 69.4872 0.9094 1.7783 
  -999.25 -999.25 0.6598 0.7002 
6294.000 
  8.88 -999.25 -999.25 -999.25 -999.25 104.447 0.615014 69.4872 0.8976 1.7783 
  -999.25 -999.25 0.6591 0.6825 
6294.500 
  8.88 -999.25 -999.25 -999.25 -999.25 105.909 0.615014 69.4872 0.9042 1.7783 
  -999.25 -999.25 0.6505 0.672 
6295.000 
  8.88 -999.25 -999.25 -999.25 -999.25 106.46 0.615014 69.4872 0.89 1.7783 
  -999.25 -999.25 0.6488 0.6724 
6295.500 
  8.88 -999.25 -999.25 -999.25 -999.25 108.57 0.615014 69.4872 0.8789 1.7783 
  -999.25 -999.25 0.6478 0.6774 
6296.000 
  8.88 -999.25 -999.25 -999.25 -999.25 107.161 0.615014 69.4872 0.8606 1.7783 
  -999.25 -999.25 0.6535 0.6821 
6296.500 
  8.88 -999.25 -999.25 -999.25 -999.25 107.042 0.615014 69.4872 0.8616 1.7783 
  -999.25 -999.25 0.6504 0.6668 
6297.000 
  8.88 -999.25 -999.25 -999.25 -999.25 107.09 0.615014 69.4872 0.8698 1.7783 
  -999.25 -999.25 0.6401 0.6563 
6297.500 
  8.88 -999.25 -999.25 -999.25 -999.25 111.302 0.615014 69.4872 0.8558 1.7783 
  -999.25 -999.25 0.641 0.6615 
6298.000 
  8.88 -999.25 -999.25 -999.25 -999.25 113.13 0.615014 69.4872 0.8488 1.7783 
  -999.25 -999.25 0.6498 0.6705 
6298.500 
  8.88 -999.25 -999.25 -999.25 -999.25 113.43 0.615014 69.4872 0.8422 1.7783 
  -999.25 -999.25 0.661 0.6702 
6299.000 
  8.88 -999.25 -999.25 -999.25 -999.25 109.043 0.615014 69.4872 0.867 1.7783 
  -999.25 -999.25 0.6598 0.6808 
6299.500 
  8.88 -999.25 -999.25 -999.25 -999.25 107.575 0.615014 69.4872 0.8293 1.7783 
  -999.25 -999.25 0.6607 0.6912 
6300.000 
  8.88 -999.25 -999.25 -999.25 -999.25 107.048 0.615014 69.4872 0.8078 1.7783 
  -999.25 -999.25 0.6616 0.6802 
6300.500 
  8.88 -999.25 -999.25 -999.25 -999.25 112.058 0.615014 69.4872 0.8227 1.7783 
  -999.25 -999.25 0.6448 0.6409 
6301.000 
  8.88 -999.25 -999.25 -999.25 -999.25 113.975 0.615014 69.4872 0.8552 1.7783 
  -999.25 -999.25 0.6337 0.627 
6301.500 
  8.88 -999.25 -999.25 -999.25 -999.25 114.473 0.615014 69.4872 0.859 1.7783 
  -999.25 -999.25 0.637 0.6482 
6302.000 
  8.88 -999.25 -999.25 -999.25 -999.25 111.015 0.615014 69.4872 0.907 1.7783 
  -999.25 -999.25 0.6399 0.6769 
6302.500 
  8.88 -999.25 -999.25 -999.25 -999.25 110.35 0.615014 69.4872 0.9412 1.7783 
  -999.25 -999.25 0.6308 0.6836 
6303.000 
  8.88 -999.25 -999.25 -999.25 -999.25 112.453 0.615014 69.4872 0.9421 1.7783 
  -999.25 -999.25 0.625 0.6656 
6303.500 
  8.88 -999.25 -999.25 -999.25 -999.25 113.945 0.615014 69.4872 0.8612 1.7783 
  -999.25 -999.25 0.6328 0.6692 
6304.000 
  8.88 -999.25 -999.25 -999.25 -999.25 107.221 0.615014 69.4872 0.7434 1.7783 
  -999.25 -999.25 0.6701 0.6955 
6304.500 
  8.88 -999.25 -999.25 -999.25 -999.25 89.567 0.615014 69.4872 0.9996 1.7783 
  -999.25 -999.25 0.7662 0.8016 
6305.000 
  8.88 -999.25 -999.25 -999.25 -999.25 68.3409 0.615014 69.4872 1.2684 1.7783 
  -999.25 -999.25 1.1375 1.5367 
6305.500 
  8.88 -999.25 -999.25 -999.25 -999.25 53.7308 0.615014 69.4872 0.7877 1.7783 
  -999.25 -999.25 1.9527 2.4848 
6306.000 
  8.88 -999.25 -999.25 -999.25 -999.25 57.4163 0.615014 69.4872 0.5446 1.7783 
  -999.25 -999.25 2.4171 4.0009 
