~Version Information
VERS.                2.00 :CWLS Log ASCII Standard
WRAP.                 YES :Multiple lines per depth step
#
~Well Information
#MNEM.UNIT               DATA                    DESCRIPTION OF MNEMONIC
#--- ---- ----------------------------------- -------------------------------
STRT.F                                  0.000 :START Depth
STOP.F                              13418.500 :STOP Depth
STEP.F                                  0.500 :STEP Length
NULL.                                -999.250 :NULL Value
DATE.                              2009-09-07 :LOG DATE
#
~Curve Information
#--- ---- ----------------------------------- -------------------------------
DEPTH.F                                        :
CALI.IN                                       :Ultrasonic Caliper Average Diameter
DRHB.G/CC                                     :Bulk Density Correction  Bottom
DRHO.G/CC                                     :Bulk Density Correction
DRHU.G/CC                                     :Bulk Density Correction  Up
DT  .US/F                                     :Delta-T Compressional
GR  .GAPI                                     :Gamma Ray
NPHI.V/V                                      :Neutron Porosity
PEF .B/E                                      :Photoelectric Factor Bottom
RD  .OHMM                                     :Deep Resistivity
RHOB.G/CC                                     :Bulk Density
ROBB.G/CC                                     :Bulk Density  Bottom
ROBU.G/CC                                     :Bulk Density  Up
RS  .OHMM                                     :Shallow Resistivity
RT  .OHMM                                     :True Resistivity
#
~ASCII data
# ...
6867.500 
  8.88 -999.25 -999.25 -999.25 -999.25 79.5234 0.615014 69.4872 0.7367 1.7783 
  -999.25 -999.25 0.508 0.4517 
6868.000 
  8.88 -999.25 -999.25 -999.25 -999.25 78.5166 0.615014 69.4872 0.6814 1.7783 
  -999.25 -999.25 0.5049 0.4778 
6868.500 
  8.88 -999.25 -999.25 -999.25 -999.25 77.4619 0.615014 69.4872 0.6278 1.7783 
  -999.25 -999.25 0.5105 0.484 
6869.000 
  8.88 -999.25 -999.25 -999.25 -999.25 76.0656 0.615014 69.4872 0.6552 1.7783 
  -999.25 -999.25 0.5092 0.464 
6869.500 
  8.88 -999.25 -999.25 -999.25 -999.25 74.5435 0.615014 69.4872 0.7209 1.7783 
  -999.25 -999.25 0.4899 0.4689 
6870.000 
  8.88 -999.25 -999.25 -999.25 -999.25 72.9135 0.615014 69.4872 0.7111 1.7783 
  -999.25 -999.25 0.4837 0.4931 
6870.500 
  8.88 -999.25 -999.25 -999.25 -999.25 73.5007 0.615014 69.4872 0.6707 1.7783 
  -999.25 -999.25 0.5036 0.4978 
6871.000 
  8.88 -999.25 -999.25 -999.25 -999.25 73.6206 0.615014 69.4872 0.6961 1.7783 
  -999.25 -999.25 0.4908 0.4831 
6871.500 
  8.88 -999.25 -999.25 -999.25 -999.25 73.8963 0.615014 69.4872 0.6775 1.7783 
  -999.25 -999.25 0.5109 0.4825 
6872.000 
  8.88 -999.25 -999.25 -999.25 -999.25 73.5247 0.615014 69.4872 0.6924 1.7783 
  -999.25 -999.25 0.5068 0.4875 
6872.500 
  8.88 -999.25 -999.25 -999.25 -999.25 71.9486 0.615014 69.4872 0.7295 1.7783 
  -999.25 -999.25 0.5126 0.5007 
6873.000 
  8.88 -999.25 -999.25 -999.25 -999.25 70.822 0.615014 69.4872 0.6835 1.7783 
  -999.25 -999.25 0.5292 0.5184 
6873.500 
  8.88 -999.25 -999.25 -999.25 -999.25 70.4085 0.615014 69.4872 0.661 1.7783 
  -999.25 -999.25 0.5435 0.5066 
6874.000 
  8.88 -999.25 -999.25 -999.25 -999.25 72.8955 0.615014 69.4872 0.6876 1.7783 
  -999.25 -999.25 0.5331 0.5152 
6874.500 
  8.88 -999.25 -999.25 -999.25 -999.25 74.957 0.615014 69.4872 0.7058 1.7783 
  -999.25 -999.25 0.529 0.5085 
6875.000 
  8.88 -999.25 -999.25 -999.25 -999.25 78.4926 0.615014 69.4872 0.6902 1.7783 
  -999.25 -999.25 0.5178 0.5041 
6875.500 
  8.88 -999.25 -999.25 -999.25 -999.25 80.8298 0.615014 69.4872 0.7142 1.7783 
  -999.25 -999.25 0.513 0.5096 
6876.000 
  8.88 -999.25 -999.25 -999.25 -999.25 84.3355 0.615014 69.4872 0.6981 1.7783 
  -999.25 -999.25 0.5105 0.5186 
6876.500 
  8.88 -999.25 -999.25 -999.25 -999.25 82.4238 0.615014 69.4872 0.6881 1.7783 
  -999.25 -999.25 0.5223 0.5222 
6877.000 
  8.88 -999.25 -999.25 -999.25 -999.25 78.169 0.615014 69.4872 0.6905 1.7783 
  -999.25 -999.25 0.5259 0.5144 
6877.500 
  8.88 -999.25 -999.25 -999.25 -999.25 74.9809 0.615014 69.4872 0.7374 1.7783 
  -999.25 -999.25 0.5133 0.5216 
6878.000 
  8.88 -999.25 -999.25 -999.25 -999.25 78.4866 0.615014 69.4872 0.7011 1.7783 
  -999.25 -999.25 0.5098 0.5195 
6878.500 
  8.88 -999.25 -999.25 -999.25 -999.25 81.2553 0.615014 69.4872 0.7078 1.7783 
  -999.25 -999.25 0.5087 0.5175 
6879.000 
  8.88 -999.25 -999.25 -999.25 -999.25 82.1841 0.615014 69.4872 0.7171 1.7783 
  -999.25 -999.25 0.5113 0.5011 
6879.500 
  8.88 -999.25 -999.25 -999.25 -999.25 81.0695 0.615014 69.4872 0.7519 1.7783 
  -999.25 -999.25 0.505 0.5263 
6880.000 
  8.88 -999.25 -999.25 -999.25 -999.25 81.0575 0.615014 69.4872 0.7249 1.7783 
  -999.25 -999.25 0.5075 0.5207 
6880.500 
  8.88 -999.25 -999.25 -999.25 -999.25 80.8597 0.615014 69.4872 0.7606 1.7783 
  -999.25 -999.25 0.5043 0.5278 
6881.000 
  8.88 -999.25 -999.25 -999.25 -999.25 78.9481 0.615014 69.4872 0.6899 1.7783 
  -999.25 -999.25 0.51 0.5349 
6881.500 
  8.88 -999.25 -999.25 -999.25 -999.25 79.3076 0.615014 69.4872 0.7156 1.7783 
  -999.25 -999.25 0.5004 0.501 
6882.000 
  8.88 -999.25 -999.25 -999.25 -999.25 78.5466 0.615014 69.4872 0.7658 1.7783 
  -999.25 -999.25 0.4934 0.4941 
6882.500 
  8.88 -999.25 -999.25 -999.25 -999.25 76.8806 0.615014 69.4872 0.7593 1.7783 
  -999.25 -999.25 0.4923 0.5175 
6883.000 
  8.88 -999.25 -999.25 -999.25 -999.25 74.5554 0.615014 69.4872 0.6889 1.7783 
  -999.25 -999.25 0.5087 0.5172 
6883.500 
  8.88 -999.25 -999.25 -999.25 -999.25 72.2123 0.615014 69.4872 0.7429 1.7783 
  -999.25 -999.25 0.5129 0.511 
6884.000 
  8.88 -999.25 -999.25 -999.25 -999.25 70.2227 0.615014 69.4872 0.7387 1.7783 
  -999.25 -999.25 0.5088 0.5285 
6884.500 
  8.88 -999.25 -999.25 -999.25 -999.25 70.4025 0.615014 69.4872 0.7113 1.7783 
  -999.25 -999.25 0.5122 0.5286 
6885.000 
  8.88 -999.25 -999.25 -999.25 -999.25 70.3486 0.615014 69.4872 0.7361 1.7783 
  -999.25 -999.25 0.5025 0.5152 
6885.500 
  8.88 -999.25 -999.25 -999.25 -999.25 70.7082 0.615014 69.4872 0.7577 1.7783 
  -999.25 -999.25 0.4961 0.5259 
6886.000 
  8.88 -999.25 -999.25 -999.25 -999.25 70.822 0.615014 69.4872 0.7049 1.7783 
  -999.25 -999.25 0.5043 0.5187 
6886.500 
  8.88 -999.25 -999.25 -999.25 -999.25 72.6618 0.615014 69.4872 0.7692 1.7783 
  -999.25 -999.25 0.5007 0.5111 
6887.000 
  8.88 -999.25 -999.25 -999.25 -999.25 77.1083 0.615014 69.4872 0.7616 1.7783 
  -999.25 -999.25 0.5046 0.5113 
6887.500 
  8.88 -999.25 -999.25 -999.25 -999.25 80.2065 0.615014 69.4872 0.7023 1.7783 
  -999.25 -999.25 0.5127 0.5277 
6888.000 
  8.88 -999.25 -999.25 -999.25 -999.25 80.608 0.615014 69.4872 0.6942 1.7783 
  -999.25 -999.25 0.5194 0.5111 
6888.500 
  8.88 -999.25 -999.25 -999.25 -999.25 76.6948 0.615014 69.4872 0.7711 1.7783 
  -999.25 -999.25 0.5138 0.5198 
6889.000 
  8.88 -999.25 -999.25 -999.25 -999.25 73.0633 0.615014 69.4872 0.734 1.7783 
  -999.25 -999.25 0.5276 0.5182 
6889.500 
  8.88 -999.25 -999.25 -999.25 -999.25 74.4656 0.615014 69.4872 0.6876 1.7783 
  -999.25 -999.25 0.5303 0.5109 
6890.000 
  8.88 -999.25 -999.25 -999.25 -999.25 77.0184 0.615014 69.4872 0.7334 1.7783 
  -999.25 -999.25 0.5222 0.5094 
6890.500 
  8.88 -999.25 -999.25 -999.25 -999.25 79.9489 0.615014 69.4872 0.7367 1.7783 
  -999.25 -999.25 0.5148 0.5236 
6891.000 
  8.88 -999.25 -999.25 -999.25 -999.25 80.8358 0.615014 69.4872 0.7074 1.7783 
  -999.25 -999.25 0.5123 0.5022 
6891.500 
  8.88 -999.25 -999.25 -999.25 -999.25 78.9241 0.615014 69.4872 0.7982 1.7783 
  -999.25 -999.25 0.4937 0.4875 
6892.000 
  8.88 -999.25 -999.25 -999.25 -999.25 74.7532 0.615014 69.4872 0.75 1.7783 
  -999.25 -999.25 0.4959 0.4999 
6892.500 
  8.88 -999.25 -999.25 -999.25 -999.25 72.3382 0.615014 69.4872 0.6779 1.7783 
  -999.25 -999.25 0.5121 0.5243 
6893.000 
  8.88 -999.25 -999.25 -999.25 -999.25 70.7261 0.615014 69.4872 0.7145 1.7783 
  -999.25 -999.25 0.5217 0.5286 
6893.500 
  8.88 -999.25 -999.25 -999.25 -999.25 71.625 0.615014 69.4872 0.7668 1.7783 
  -999.25 -999.25 0.5231 0.5444 
6894.000 
  8.88 -999.25 -999.25 -999.25 -999.25 73.303 0.615014 69.4872 0.7047 1.7783 
  -999.25 -999.25 0.5372 0.536 
6894.500 
  8.88 -999.25 -999.25 -999.25 -999.25 77.7555 0.615014 69.4872 0.718 1.7783 
  -999.25 -999.25 0.5236 0.5299 
6895.000 
  8.88 -999.25 -999.25 -999.25 -999.25 79.0559 0.615014 69.4872 0.8049 1.7783 
  -999.25 -999.25 0.5038 0.5334 
6895.500 
  8.88 -999.25 -999.25 -999.25 -999.25 78.5106 0.615014 69.4872 0.7183 1.7783 
  -999.25 -999.25 0.5045 0.5511 
6896.000 
  8.88 -999.25 -999.25 -999.25 -999.25 75.9158 0.615014 69.4872 0.6959 1.7783 
  -999.25 -999.25 0.5057 0.5268 
6896.500 
  8.88 -999.25 -999.25 -999.25 -999.25 74.9929 0.615014 69.4872 0.7832 1.7783 
  -999.25 -999.25 0.4883 0.5384 
6897.000 
  8.88 -999.25 -999.25 -999.25 -999.25 75.0289 0.615014 69.4872 0.7393 1.7783 
  -999.25 -999.25 0.4901 0.5214 
6897.500 
  8.88 -999.25 -999.25 -999.25 -999.25 76.2813 0.615014 69.4872 0.752 1.7783 
  -999.25 -999.25 0.4908 0.5113 
6898.000 
  8.88 -999.25 -999.25 -999.25 -999.25 76.3113 0.615014 69.4872 0.724 1.7783 
  -999.25 -999.25 0.4963 0.5242 
6898.500 
  8.88 -999.25 -999.25 -999.25 -999.25 76.599 0.615014 69.4872 0.7118 1.7783 
  -999.25 -999.25 0.5027 0.533 
6899.000 
  8.88 -999.25 -999.25 -999.25 -999.25 77.7675 0.615014 69.4872 0.8031 1.7783 
  -999.25 -999.25 0.4913 0.5399 
6899.500 
  8.88 -999.25 -999.25 -999.25 -999.25 79.2357 0.615014 69.4872 0.7785 1.7783 
  -999.25 -999.25 0.4998 0.5388 
6900.000 
  8.88 -999.25 -999.25 -999.25 -999.25 78.0252 0.615014 69.4872 0.7917 1.7783 
  -999.25 -999.25 0.4921 0.5277 
