~Version Information
VERS.                2.00 :CWLS Log ASCII Standard
WRAP.                 YES :Multiple lines per depth step
#
~Well Information
#MNEM.UNIT               DATA                    DESCRIPTION OF MNEMONIC
#--- ---- ----------------------------------- -------------------------------
STRT.F                                  0.000 :START Depth
STOP.F                              13418.500 :STOP Depth
STEP.F                                  0.500 :STEP Length
NULL.                                -999.250 :NULL Value
DATE.                              2009-09-07 :LOG DATE
#
~Curve Information
#--- ---- ----------------------------------- -------------------------------
DEPTH.F                                        :
CALI.IN                                       :Ultrasonic Caliper Average Diameter
DRHB.G/CC                                     :Bulk Density Correction  Bottom
DRHO.G/CC                                     :Bulk Density Correction
DRHU.G/CC                                     :Bulk Density Correction  Up
DT  .US/F                                     :Delta-T Compressional
GR  .GAPI                                     :Gamma Ray
NPHI.V/V                                      :Neutron Porosity
PEF .B/E                                      :Photoelectric Factor Bottom
RD  .OHMM                                     :Deep Resistivity
RHOB.G/CC                                     :Bulk Density
ROBB.G/CC                                     :Bulk Density  Bottom
ROBU.G/CC                                     :Bulk Density  Up
RS  .OHMM                                     :Shallow Resistivity
RT  .OHMM                                     :True Resistivity
#
~ASCII data
# ...
10956.001 
  8.4817 -999.25 0.005356 -999.25 62.1333 10.498 0.057604 5.5543 5.8537 2.6122 
  -999.25 -999.25 7.0195 6.8523 
10956.501 
  8.4987 -999.25 -0.000887 -999.25 61.7641 9.7914 0.064889 5.4964 5.8254 2.5973 
  -999.25 -999.25 7.0682 6.8953 
10957.001 
  8.5037 -999.25 0.001019 -999.25 61.3779 10.7586 0.065438 5.449 5.8137 2.5973 
  -999.25 -999.25 7.0195 6.8036 
10957.501 
  8.5148 -999.25 0.000217 -999.25 61.6682 10.1805 0.067236 5.5928 5.8836 2.5905 
  -999.25 -999.25 6.9585 6.7217 
10958.001 
  8.5358 -999.25 0.000678 -999.25 62.4993 10.1389 0.069944 5.5356 5.8956 2.5872 
  -999.25 -999.25 6.875 6.7482 
10958.501 
  8.5379 -999.25 0.005938 -999.25 64.7035 9.767 0.067044 5.5623 5.7284 2.5907 
  -999.25 -999.25 6.5477 6.8448 
10959.001 
  8.5001 -999.25 0.009708 -999.25 66.1677 9.3095 0.065223 5.4757 5.8521 2.6045 
  -999.25 -999.25 6.3566 6.6242 
10959.501 
  8.5218 -999.25 0.013397 -999.25 65.5543 10.3307 0.068677 5.708 5.8812 2.6075 
  -999.25 -999.25 6.2438 6.4908 
10960.001 
  8.5618 -999.25 0.019659 -999.25 64.7556 11.0797 0.073926 5.8264 5.8791 2.608 
  -999.25 -999.25 6.0704 6.4655 
10960.501 
  8.5895 -999.25 0.020572 -999.25 63.872 12.4052 0.067931 5.7758 5.84 2.6068 
  -999.25 -999.25 5.9939 6.2412 
10961.001 
  8.578 -999.25 0.013282 -999.25 61.4369 12.1523 0.068284 5.6143 5.9251 2.5973 
  -999.25 -999.25 5.8432 6.0811 
10961.501 
  8.5499 -999.25 0.009486 -999.25 59.5701 11.0058 0.081169 5.5579 6.0653 2.5936 
  -999.25 -999.25 5.7065 5.995 
10962.001 
  8.5181 -999.25 0.021929 -999.25 59.4359 10.7957 0.082615 5.7596 6.0933 2.5958 
  -999.25 -999.25 5.5684 5.7981 
10962.501 
  8.5156 -999.25 0.036386 -999.25 59.6285 13.3318 0.07975 5.8136 6.2495 2.6058 
  -999.25 -999.25 5.5786 5.582 
10963.001 
  8.5158 -999.25 0.032408 -999.25 59.5624 14.9551 0.081574 5.7748 6.2181 2.5908 
  -999.25 -999.25 5.4187 5.5925 
10963.501 
  8.4937 -999.25 0.02051 -999.25 60.4702 15.735 0.083716 5.5679 6.0501 2.5749 
  -999.25 -999.25 5.4179 5.899 
10964.001 
  8.5099 -999.25 0.00956 -999.25 61.992 14.2619 0.084896 5.5245 5.9685 2.5679 
  -999.25 -999.25 5.1518 5.5297 
10964.501 
  8.5184 -999.25 0.019543 -999.25 62.4286 14.3901 0.083058 5.453 6.2377 2.5846 
  -999.25 -999.25 5.0918 5.3777 
10965.001 
  8.517 -999.25 0.018875 -999.25 63.6311 14.9582 0.080544 5.5034 6.104 2.5983 
  -999.25 -999.25 5.0448 5.4554 
10965.501 
  8.5478 -999.25 0.023082 -999.25 64.5602 14.0657 0.077996 5.4906 6.355 2.617 
  -999.25 -999.25 4.9554 5.2142 
10966.001 
  8.569 -999.25 0.014065 -999.25 64.2984 12.4825 0.067356 5.4984 6.3699 2.6107 
  -999.25 -999.25 5.1012 5.4585 
10966.501 
  8.5537 -999.25 0.01042 -999.25 63.1119 11.0791 0.072466 5.5491 6.3409 2.6011 
  -999.25 -999.25 5.1201 5.5698 
10967.001 
  8.5947 -999.25 0.011031 -999.25 62.1382 10.1718 0.075297 5.5998 6.3545 2.5863 
  -999.25 -999.25 5.1517 5.682 
10967.501 
  8.5473 -999.25 0.015487 -999.25 61.6809 9.7092 0.075325 5.6417 6.4401 2.5791 
  -999.25 -999.25 5.2419 5.6815 
10968.001 
  8.5182 -999.25 0.015789 -999.25 62.1689 9.3707 0.078847 5.587 6.5724 2.5851 
  -999.25 -999.25 5.3056 5.7264 
10968.501 
  8.4919 -999.25 0.012943 -999.25 61.5308 9.2445 0.074417 5.6003 6.7053 2.5857 
  -999.25 -999.25 5.5155 5.3029 
10969.001 
  8.4831 -999.25 0.013945 -999.25 59.7851 9.5475 0.081816 5.5651 6.9321 2.5881 
  -999.25 -999.25 5.4108 5.4914 
10969.501 
  8.4821 -999.25 0.015535 -999.25 58.3033 9.2744 0.080881 5.6584 6.7855 2.5896 
  -999.25 -999.25 5.49 5.6196 
10970.001 
  8.4976 -999.25 0.014912 -999.25 57.4786 10.6157 0.083635 5.6375 7.4839 2.5891 
  -999.25 -999.25 5.4291 5.3443 
10970.501 
  8.5247 -999.25 0.013642 -999.25 57.164 11.3447 0.085829 5.6356 7.145 2.5919 
  -999.25 -999.25 5.4857 5.863 
10971.001 
  8.5156 -999.25 0.013166 -999.25 57.3239 11.4346 0.081859 5.5424 6.7957 2.5909 
  -999.25 -999.25 5.6816 6.744 
10971.501 
  8.4962 -999.25 0.016898 -999.25 57.6413 11.4567 0.079465 5.5331 7.3121 2.5996 
  -999.25 -999.25 5.7637 6.2756 
10972.001 
  8.4794 -999.25 0.019029 -999.25 59.1047 11.7886 0.079871 5.5813 7.1266 2.6099 
  -999.25 -999.25 6.3686 6.8372 
10972.501 
  8.4705 -999.25 0.014136 -999.25 58.664 12.6654 0.081504 5.6376 7.1089 2.6136 
  -999.25 -999.25 6.8706 7.5771 
10973.001 
  8.4904 -999.25 0.022933 -999.25 57.3786 12.0795 0.070216 5.8001 7.1729 2.6153 
  -999.25 -999.25 7.0429 7.7297 
10973.501 
  8.5457 -999.25 0.03278 -999.25 57.4106 11.4619 0.067916 5.8478 7.0909 2.6262 
  -999.25 -999.25 7.2142 8.3589 
10974.001 
  8.519 -999.25 0.042818 -999.25 57.8604 11.7337 0.063241 5.9309 7.1456 2.641 
  -999.25 -999.25 7.6228 8.4662 
10974.501 
  8.4862 -999.25 0.03767 -999.25 57.3497 11.7121 0.061578 5.8344 7.1754 2.645 
  -999.25 -999.25 8.052 8.536 
10975.001 
  8.4985 -999.25 0.036774 -999.25 56.9836 11.7811 0.060608 5.9194 7.2428 2.6354 
  -999.25 -999.25 8.199 8.6516 
10975.501 
  8.4942 -999.25 0.032564 -999.25 57.7279 11.2266 0.057366 5.9172 7.318 2.62 
  -999.25 -999.25 8.7091 8.8453 
10976.001 
  8.491 -999.25 0.031397 -999.25 58.0415 10.6592 0.054725 5.9041 7.4356 2.6203 
  -999.25 -999.25 9.0457 8.9033 
10976.501 
  8.4979 -999.25 0.023527 -999.25 58.3103 9.9672 0.054992 5.8257 7.3946 2.619 
  -999.25 -999.25 9.3444 9.0511 
10977.001 
  8.5082 -999.25 0.021158 -999.25 58.5988 9.2475 0.05577 5.7785 7.2683 2.6349 
  -999.25 -999.25 9.5936 9.2223 
10977.501 
  8.5563 -999.25 0.012728 -999.25 58.5236 9.3417 0.047356 5.7018 7.3827 2.6372 
  -999.25 -999.25 9.8795 9.1823 
10978.001 
  8.5719 -999.25 0.011562 -999.25 60.1248 9.4579 0.050319 5.732 7.369 2.6396 
  -999.25 -999.25 10.0581 9.2184 
10978.501 
  8.5902 -999.25 0.007789 -999.25 60.1573 9.2657 0.051292 5.746 7.499 2.6232 
  -999.25 -999.25 10.0578 9.3037 
10979.001 
  8.6003 -999.25 0.01328 -999.25 61.5797 8.0421 0.052347 5.7604 7.538 2.6212 
  -999.25 -999.25 10.0619 9.1639 
10979.501 
  8.5932 -999.25 0.010853 -999.25 62.2714 8.002 0.050163 5.6498 7.4124 2.6161 
  -999.25 -999.25 10.0516 9.5102 
10980.001 
  8.5542 -999.25 0.018 -999.25 61.5731 8.4519 0.046547 5.6627 7.5813 2.6292 
  -999.25 -999.25 10.0937 9.7231 
10980.501 
  8.5281 -999.25 0.019793 -999.25 60.1713 10.083 0.049585 5.7762 7.4578 2.6336 
  -999.25 -999.25 10.0489 10.0537 
10981.001 
  8.5653 -999.25 0.032017 -999.25 59.5326 10.8596 0.051708 5.9695 7.5003 2.6364 
  -999.25 -999.25 10.003 10.1234 
10981.501 
  8.5923 -999.25 0.033587 -999.25 59.4495 11.4219 0.054369 5.9264 7.6383 2.6329 
  -999.25 -999.25 9.763 9.723 
10982.001 
  8.5841 -999.25 0.024089 -999.25 60.9627 12.2075 0.052785 5.7317 7.61 2.6223 
  -999.25 -999.25 9.8821 9.6644 
10982.501 
  8.5683 -999.25 0.015878 -999.25 61.0869 12.316 0.057315 5.5737 7.6781 2.6183 
  -999.25 -999.25 9.5951 9.7592 
10983.001 
  8.5404 -999.25 0.006941 -999.25 60.2612 12.1437 0.060209 5.4958 7.7853 2.6079 
  -999.25 -999.25 9.5303 9.9402 
10983.501 
  8.5534 -999.25 0.011496 -999.25 61.1528 10.2031 0.061283 5.5338 7.7847 2.6031 
  -999.25 -999.25 9.2021 9.5504 
10984.001 
  8.5577 -999.25 0.0097 -999.25 61.428 9.4614 0.062477 5.5106 7.8349 2.5955 
  -999.25 -999.25 8.9235 9.4717 
10984.501 
  8.5728 -999.25 0.009284 -999.25 61.3142 9.9561 0.063523 5.4732 7.9707 2.5969 
  -999.25 -999.25 8.1647 9.2488 
10985.001 
  8.5658 -999.25 0.007698 -999.25 61.0987 11.3697 0.061731 5.4779 8.0785 2.5969 
  -999.25 -999.25 8.0198 8.73 
10985.501 
  8.5775 -999.25 0.003239 -999.25 60.3619 12.3346 0.071278 5.4127 8.0869 2.598 
  -999.25 -999.25 7.4685 8.449 
10986.001 
  8.576 -999.25 0.005865 -999.25 60.8593 12.2848 0.070316 5.4326 8.0415 2.612 
  -999.25 -999.25 7.1449 8.2507 
10986.501 
  8.5601 -999.25 0.012652 -999.25 60.6162 11.8928 0.06529 5.4233 8.1899 2.6202 
  -999.25 -999.25 7.0679 7.8604 
10987.001 
  8.5253 -999.25 0.014553 -999.25 60.286 10.801 0.068422 5.4843 8.0997 2.6295 
  -999.25 -999.25 6.7752 7.6499 
10987.501 
  8.5056 -999.25 0.007421 -999.25 59.7204 10.1628 0.068463 5.4506 7.8802 2.6159 
  -999.25 -999.25 6.7929 7.5098 
10988.001 
  8.5006 -999.25 0.009504 -999.25 60.4887 11.0654 0.067519 5.406 8.0851 2.6141 
  -999.25 -999.25 6.6554 7.087 
