~Version Information
VERS.                2.00 :CWLS Log ASCII Standard
WRAP.                 YES :Multiple lines per depth step
#
~Well Information
#MNEM.UNIT               DATA                    DESCRIPTION OF MNEMONIC
#--- ---- ----------------------------------- -------------------------------
STRT.F                                  0.000 :START Depth
STOP.F                              13418.500 :STOP Depth
STEP.F                                  0.500 :STEP Length
NULL.                                -999.250 :NULL Value
DATE.                              2009-09-07 :LOG DATE
#
~Curve Information
#--- ---- ----------------------------------- -------------------------------
DEPTH.F                                        :
CALI.IN                                       :Ultrasonic Caliper Average Diameter
DRHB.G/CC                                     :Bulk Density Correction  Bottom
DRHO.G/CC                                     :Bulk Density Correction
DRHU.G/CC                                     :Bulk Density Correction  Up
DT  .US/F                                     :Delta-T Compressional
GR  .GAPI                                     :Gamma Ray
NPHI.V/V                                      :Neutron Porosity
PEF .B/E                                      :Photoelectric Factor Bottom
RD  .OHMM                                     :Deep Resistivity
RHOB.G/CC                                     :Bulk Density
ROBB.G/CC                                     :Bulk Density  Bottom
ROBU.G/CC                                     :Bulk Density  Up
RS  .OHMM                                     :Shallow Resistivity
RT  .OHMM                                     :True Resistivity
#
~ASCII data
# ...
5679.500 
  8.88 -999.25 -999.25 -999.25 -999.25 103.02 0.615014 69.4872 1.216 1.7783 
  -999.25 -999.25 0.9607 0.9653 
5680.000 
  8.88 -999.25 -999.25 -999.25 -999.25 100.617 0.615014 69.4872 1.1863 1.7783 
  -999.25 -999.25 0.9572 0.9491 
5680.500 
  8.88 -999.25 -999.25 -999.25 -999.25 99.5206 0.615014 69.4872 1.1617 1.7783 
  -999.25 -999.25 0.9508 0.9429 
5681.000 
  8.88 -999.25 -999.25 -999.25 -999.25 101.264 0.615014 69.4872 1.1222 1.7783 
  -999.25 -999.25 0.9459 0.9692 
5681.500 
  8.88 -999.25 -999.25 -999.25 -999.25 101.043 0.615014 69.4872 1.1 1.7783 
  -999.25 -999.25 0.9485 0.9697 
5682.000 
  8.88 -999.25 -999.25 -999.25 -999.25 101.51 0.615014 69.4872 1.1251 1.7783 
  -999.25 -999.25 0.9432 0.9501 
5682.500 
  8.88 -999.25 -999.25 -999.25 -999.25 98.7835 0.615014 69.4872 1.1027 1.7783 
  -999.25 -999.25 0.9412 0.9485 
5683.000 
  8.88 -999.25 -999.25 -999.25 -999.25 97.7048 0.615014 69.4872 1.1233 1.7783 
  -999.25 -999.25 0.9274 0.9269 
5683.500 
  8.88 -999.25 -999.25 -999.25 -999.25 97.6449 0.615014 69.4872 1.1415 1.7783 
  -999.25 -999.25 0.911 0.9185 
5684.000 
  8.88 -999.25 -999.25 -999.25 -999.25 99.6584 0.615014 69.4872 1.0692 1.7783 
  -999.25 -999.25 0.9111 0.9226 
5684.500 
  8.88 -999.25 -999.25 -999.25 -999.25 102.882 0.615014 69.4872 1.0818 1.7783 
  -999.25 -999.25 0.915 0.9215 
5685.000 
  8.88 -999.25 -999.25 -999.25 -999.25 102.247 0.615014 69.4872 1.0879 1.7783 
  -999.25 -999.25 0.9148 0.9186 
5685.500 
  8.88 -999.25 -999.25 -999.25 -999.25 100.3 0.615014 69.4872 1.0993 1.7783 
  -999.25 -999.25 0.9161 0.9163 
5686.000 
  8.88 -999.25 -999.25 -999.25 -999.25 95.8291 0.615014 69.4872 1.0744 1.7783 
  -999.25 -999.25 0.932 0.9449 
5686.500 
  8.88 -999.25 -999.25 -999.25 -999.25 93.402 0.615014 69.4872 1.0341 1.7783 
  -999.25 -999.25 0.9523 0.9694 
5687.000 
  8.88 -999.25 -999.25 -999.25 -999.25 91.3286 0.615014 69.4872 1.0716 1.7783 
  -999.25 -999.25 0.9436 0.9478 
5687.500 
  8.88 -999.25 -999.25 -999.25 -999.25 92.5571 0.615014 69.4872 1.09 1.7783 
  -999.25 -999.25 0.9278 0.9192 
5688.000 
  8.88 -999.25 -999.25 -999.25 -999.25 95.3377 0.615014 69.4872 1.0364 1.7783 
  -999.25 -999.25 0.9226 0.9393 
5688.500 
  8.88 -999.25 -999.25 -999.25 -999.25 100.324 0.615014 69.4872 1.0287 1.7783 
  -999.25 -999.25 0.9103 0.929 
5689.000 
  8.88 -999.25 -999.25 -999.25 -999.25 103.32 0.615014 69.4872 1.0535 1.7783 
  -999.25 -999.25 0.8905 0.8938 
5689.500 
  8.88 -999.25 -999.25 -999.25 -999.25 104.231 0.615014 69.4872 1.0658 1.7783 
  -999.25 -999.25 0.8733 0.8722 
5690.000 
  8.88 -999.25 -999.25 -999.25 -999.25 105.627 0.615014 69.4872 1.087 1.7783 
  -999.25 -999.25 0.8635 0.8632 
5690.500 
  8.88 -999.25 -999.25 -999.25 -999.25 104.758 0.615014 69.4872 1.062 1.7783 
  -999.25 -999.25 0.8693 0.8746 
5691.000 
  8.88 -999.25 -999.25 -999.25 -999.25 103.632 0.615014 69.4872 1.0332 1.7783 
  -999.25 -999.25 0.8709 0.873 
5691.500 
  8.88 -999.25 -999.25 -999.25 -999.25 104.854 0.615014 69.4872 1.0571 1.7783 
  -999.25 -999.25 0.8588 0.8603 
5692.000 
  8.88 -999.25 -999.25 -999.25 -999.25 106.268 0.615014 69.4872 1.0583 1.7783 
  -999.25 -999.25 0.8406 0.8459 
5692.500 
  8.88 -999.25 -999.25 -999.25 -999.25 109.217 0.615014 69.4872 1.0651 1.7783 
  -999.25 -999.25 0.8272 0.817 
5693.000 
  8.88 -999.25 -999.25 -999.25 -999.25 105.873 0.615014 69.4872 1.1563 1.7783 
  -999.25 -999.25 0.8221 0.8071 
5693.500 
  8.88 -999.25 -999.25 -999.25 -999.25 108.072 0.615014 69.4872 1.1087 1.7783 
  -999.25 -999.25 0.8532 0.8581 
5694.000 
  8.88 -999.25 -999.25 -999.25 -999.25 108.779 0.615014 69.4872 1.0779 1.7783 
  -999.25 -999.25 0.8887 0.906 
5694.500 
  8.88 -999.25 -999.25 -999.25 -999.25 108.282 0.615014 69.4872 1.1129 1.7783 
  -999.25 -999.25 0.9184 0.9158 
5695.000 
  8.88 -999.25 -999.25 -999.25 -999.25 102.049 0.615014 69.4872 1.1117 1.7783 
  -999.25 -999.25 0.955 0.9427 
5695.500 
  8.88 -999.25 -999.25 -999.25 -999.25 97.7287 0.615014 69.4872 1.0981 1.7783 
  -999.25 -999.25 0.969 0.9578 
5696.000 
  8.88 -999.25 -999.25 -999.25 -999.25 99.113 0.615014 69.4872 1.1059 1.7783 
  -999.25 -999.25 0.9614 0.9582 
5696.500 
  8.88 -999.25 -999.25 -999.25 -999.25 101.031 0.615014 69.4872 1.1121 1.7783 
  -999.25 -999.25 0.9626 0.9648 
5697.000 
  8.88 -999.25 -999.25 -999.25 -999.25 101.432 0.615014 69.4872 1.1052 1.7783 
  -999.25 -999.25 0.9577 0.9578 
5697.500 
  8.88 -999.25 -999.25 -999.25 -999.25 100.03 0.615014 69.4872 1.1182 1.7783 
  -999.25 -999.25 0.9463 0.9505 
5698.000 
  8.88 -999.25 -999.25 -999.25 -999.25 97.525 0.615014 69.4872 1.1166 1.7783 
  -999.25 -999.25 0.9481 0.9538 
5698.500 
  8.88 -999.25 -999.25 -999.25 -999.25 95.6912 0.615014 69.4872 1.0714 1.7783 
  -999.25 -999.25 0.9545 0.9627 
5699.000 
  8.88 -999.25 -999.25 -999.25 -999.25 92.9526 0.615014 69.4872 1.0694 1.7783 
  -999.25 -999.25 0.9626 0.9705 
5699.500 
  8.88 -999.25 -999.25 -999.25 -999.25 93.6717 0.615014 69.4872 1.0587 1.7783 
  -999.25 -999.25 0.9604 0.9718 
5700.000 
  8.88 -999.25 -999.25 -999.25 -999.25 92.5271 0.615014 69.4872 1.0632 1.7783 
  -999.25 -999.25 0.9436 0.9462 
5700.500 
  8.88 -999.25 -999.25 -999.25 -999.25 96.2426 0.615014 69.4872 1.0598 1.7783 
  -999.25 -999.25 0.9353 0.9301 
5701.000 
  8.88 -999.25 -999.25 -999.25 -999.25 99.988 0.615014 69.4872 1.0893 1.7783 
  -999.25 -999.25 0.9188 0.9028 
5701.500 
  8.88 -999.25 -999.25 -999.25 -999.25 103.566 0.615014 69.4872 1.1098 1.7783 
  -999.25 -999.25 0.9091 0.8907 
5702.000 
  8.88 -999.25 -999.25 -999.25 -999.25 103.368 0.615014 69.4872 1.0844 1.7783 
  -999.25 -999.25 0.9098 0.9059 
5702.500 
  8.88 -999.25 -999.25 -999.25 -999.25 101.678 0.615014 69.4872 1.0776 1.7783 
  -999.25 -999.25 0.9087 0.9068 
5703.000 
  8.88 -999.25 -999.25 -999.25 -999.25 101.216 0.615014 69.4872 1.0699 1.7783 
  -999.25 -999.25 0.9103 0.8984 
5703.500 
  8.88 -999.25 -999.25 -999.25 -999.25 100.707 0.615014 69.4872 1.0843 1.7783 
  -999.25 -999.25 0.9074 0.8889 
5704.000 
  8.88 -999.25 -999.25 -999.25 -999.25 98.388 0.615014 69.4872 1.1107 1.7783 
  -999.25 -999.25 0.9027 0.8895 
5704.500 
  8.88 -999.25 -999.25 -999.25 -999.25 96.9198 0.615014 69.4872 1.0987 1.7783 
  -999.25 -999.25 0.91 0.9014 
5705.000 
  8.88 -999.25 -999.25 -999.25 -999.25 93.2642 0.615014 69.4872 1.068 1.7783 
  -999.25 -999.25 0.9234 0.9249 
5705.500 
  8.88 -999.25 -999.25 -999.25 -999.25 93.456 0.615014 69.4872 1.0904 1.7783 
  -999.25 -999.25 0.9263 0.9164 
5706.000 
  8.88 -999.25 -999.25 -999.25 -999.25 94.7504 0.615014 69.4872 1.0904 1.7783 
  -999.25 -999.25 0.9255 0.9115 
5706.500 
  8.88 -999.25 -999.25 -999.25 -999.25 94.1152 0.615014 69.4872 1.0503 1.7783 
  -999.25 -999.25 0.9156 0.8977 
5707.000 
  8.88 -999.25 -999.25 -999.25 -999.25 91.9698 0.615014 69.4872 1.0561 1.7783 
  -999.25 -999.25 0.9059 0.9018 
5707.500 
  8.88 -999.25 -999.25 -999.25 -999.25 90.4537 0.615014 69.4872 1.0312 1.7783 
  -999.25 -999.25 0.9001 0.8858 
5708.000 
  8.88 -999.25 -999.25 -999.25 -999.25 90.8612 0.615014 69.4872 1.0732 1.7783 
  -999.25 -999.25 0.8874 0.859 
5708.500 
  8.88 -999.25 -999.25 -999.25 -999.25 87.9188 0.615014 69.4872 1.0167 1.7783 
  -999.25 -999.25 0.8996 0.8736 
5709.000 
  8.88 -999.25 -999.25 -999.25 -999.25 82.0999 0.615014 69.4872 1.055 1.7783 
  -999.25 -999.25 0.9329 0.9109 
5709.500 
  8.88 -999.25 -999.25 -999.25 -999.25 79.4571 0.615014 69.4872 0.9253 1.7783 
  -999.25 -999.25 0.99 0.9869 
5710.000 
  8.88 -999.25 -999.25 -999.25 -999.25 87.6251 0.615014 69.4872 1.0005 1.7783 
  -999.25 -999.25 0.9192 0.8935 
5710.500 
  8.88 -999.25 -999.25 -999.25 -999.25 93.2163 0.615014 69.4872 1.0496 1.7783 
  -999.25 -999.25 0.8694 0.8419 
5711.000 
  8.88 -999.25 -999.25 -999.25 -999.25 95.5474 0.615014 69.4872 1.0331 1.7783 
  -999.25 -999.25 0.8402 0.8182 
5711.500 
  8.88 -999.25 -999.25 -999.25 -999.25 92.1736 0.615014 69.4872 0.9714 1.7783 
  -999.25 -999.25 0.8258 0.8191 
5712.000 
  8.88 -999.25 -999.25 -999.25 -999.25 91.4724 0.615014 69.4872 0.9455 1.7783 
  -999.25 -999.25 0.8228 0.8173 
