~Version Information
VERS.                2.00 :CWLS Log ASCII Standard
WRAP.                  NO :One line per depth step
#
~Well Information
#MNEM.UNIT               DATA                    DESCRIPTION OF MNEMONIC
#--- ---- ----------------------------------- -------------------------------
STRT.F                               8494.000 :START Depth
STOP.F                              13418.500 :STOP Depth
STEP.F                                  0.500 :STEP Length
NULL.                                -999.250 :NULL Value
DATE.                              2009-09-07 :LOG DATE
#
~Curve Information
#--- ---- ----------------------------------- -------------------------------
DEPTH.F                                        :
BVW .V/V                                      :Bound Volume Water
CARB_FLAG.UNITLESS                                     :Carbonate flag
COAL_FLAG.UNITLESS                                     :Coal flag
KLOGH.MD                                       :Calculated Horizontal Permeability From Logs
PHIF.V/V                                      :Final Porosity
SAND_FLAG.UNITLESS                                     :Sand Flag
SW  .V/V                                      :Water Saturation
VSH .V/V                                      :Volume of Shale
#
~ASCII data
# ...
9096.000 0.1855 0 0 2204.31 0.268977 1 0.6897 0.0898 
9096.500 0.1827 0 0 1660.7 0.264566 1 0.6905 0.0996 
9097.000 0.1842 0 0 1867.59 0.271897 1 0.6773 0.1004 
9097.500 0.1867 0 0 1622.65 0.276786 1 0.6745 0.1116 
9098.000 0.1838 0 0 1603.15 0.276161 1 0.6654 0.1116 
9098.500 0.1836 0 0 1566.69 0.268173 1 0.6848 0.1056 
9099.000 0.184 0 0 1732.8 0.273507 1 0.6729 0.1055 
9099.500 0.1914 0 0 2333.47 0.283501 1 0.6752 0.1 
9100.000 0.1986 0 0 2126.1 0.297258 1 0.6682 0.1167 
9100.500 0.2016 0 0 1579.89 0.296788 1 0.6792 0.1306 
9101.000 0.2186 0 0 1025.23 0.294906 1 0.7411 0.1498 
9101.500 0.2263 0 0 927.702 0.292343 1 0.7742 0.1524 
9102.000 0.2251 0 0 804.359 0.290182 1 0.7757 0.1573 
9102.500 0.2243 0 0 815.091 0.289944 1 0.7735 0.1565 
9103.000 0.2225 0 0 599.166 0.289635 1 0.7681 0.1711 
9103.500 0.2259 0 0 748.994 0.291217 1 0.7758 0.1617 
9104.000 0.2356 0 0 786.089 0.294509 1 0.8 0.1623 
9104.500 0.2346 0 0 1558.24 0.30301 1 0.7744 0.1368 
9105.000 0.2393 0 0 2181.74 0.306333 1 0.7813 0.1235 
9105.500 0.2357 0 0 4213.11 0.30229 1 0.7799 0.0882 
9106.000 0.2243 0 0 4852.32 0.293409 1 0.7645 0.0735 
9106.500 0.2247 0 0 5185.54 0.292847 1 0.7674 0.0698 
9107.000 0.2272 0 0 4592.69 0.297582 1 0.7636 0.0798 
9107.500 0.2325 0 0 3814.36 0.304403 1 0.7639 0.0949 
9108.000 0.225 0 0 3007.24 0.305683 1 0.736 0.1075 
9108.500 0.2253 0 0 2408.03 0.306918 1 0.7341 0.1193 
9109.000 0.2364 0 0 1795.34 0.30353 1 0.7787 0.1305 
9109.500 0.2325 0 0 1756.35 0.302202 1 0.7693 0.1303 
9110.000 0.2289 0 0 1895.86 0.293494 1 0.7798 0.1189 
9110.500 0.2132 0 0 1948.67 0.284136 1 0.7502 0.1093 
9111.000 0.2099 0 0 2053.55 0.276874 1 0.7581 0.1003 
9111.500 0.2046 0 0 1679.73 0.276278 1 0.7406 0.1094 
9112.000 0.2031 0 0 2100.79 0.278944 1 0.728 0.101 
9112.500 0.1947 0 0 2350.38 0.281863 1 0.6906 0.0982 
9113.000 0.193 0 0 2579.07 0.280711 1 0.6875 0.0927 
9113.500 0.1959 0 0 1985.17 0.283033 1 0.692 0.1074 
9114.000 0.1965 0 0 1962.44 0.28447 1 0.6909 0.1092 
9114.500 0.1971 0 0 2446.22 0.289669 1 0.6804 0.1032 
9115.000 0.1969 0 0 2702.64 0.287943 1 0.6838 0.0969 
9115.500 0.1975 0 0 2500.45 0.282889 1 0.6983 0.0961 
9116.000 0.1996 0 0 2262.01 0.278871 1 0.7157 0.0974 
9116.500 0.2016 0 0 2455.92 0.27931 1 0.7219 0.0938 
9117.000 0.205 0 0 2374.74 0.283915 1 0.7222 0.0995 
9117.500 0.2046 0 0 2267 0.284071 1 0.7204 0.1019 
9118.000 0.2036 0 0 1897.01 0.28429 1 0.716 0.1107 
9118.500 0.2049 0 0 2539.93 0.28751 1 0.7127 0.0995 
9119.000 0.2075 0 0 2806.6 0.288101 1 0.7203 0.0952 
9119.500 0.2066 0 0 4925.33 0.290257 1 0.7118 0.07 
9120.000 0.2046 0 0 4896.84 0.286243 1 0.7147 0.0667 
9120.500 0.207 0 0 4789.39 0.289415 1 0.7153 0.0706 
9121.000 0.2046 0 0 3482.68 0.288694 1 0.7089 0.0853 
9121.500 0.2058 0 0 3645.48 0.293956 1 0.7 0.0878 
9122.000 0.208 0 0 4162.41 0.295273 1 0.7046 0.0825 
9122.500 0.2072 0 0 6010.35 0.297652 1 0.6962 0.0669 
9123.000 0.2086 0 0 8264.16 0.300796 1 0.6935 0.0544 
9123.500 0.2089 0 0 7657.39 0.295505 1 0.7071 0.0533 
9124.000 0.2105 0 0 5684.3 0.294102 1 0.7156 0.0665 
9124.500 0.2099 0 0 3973.34 0.289045 1 0.7261 0.0792 
9125.000 0.2142 0 0 3961.71 0.293639 1 0.7296 0.0835 
9125.500 0.2142 0 0 3914.98 0.295577 1 0.7247 0.0858 
9126.000 0.2154 0 0 4644.08 0.294487 1 0.7316 0.0766 
9126.500 0.215 0 0 4125.45 0.296596 1 0.725 0.0841 
9127.000 0.2178 0 0 3250.74 0.295328 1 0.7376 0.0945 
9127.500 0.2197 0 0 1747.92 0.291465 1 0.7536 0.121 
9128.000 0.2214 0 0 1831.11 0.295091 1 0.7503 0.122 
9128.500 0.2229 0 0 1667.32 0.298832 1 0.7458 0.1298 
9129.000 0.2242 0 0 1860.64 0.303544 1 0.7387 0.1287 
9129.500 0.2219 0 0 1680.21 0.295737 1 0.7502 0.1267 
9130.000 0.2235 0 0 2633.37 0.295107 1 0.7573 0.1045 
9130.500 0.225 0 0 4215.99 0.298313 1 0.7543 0.0846 
9131.000 0.228 0 0 6082.76 0.302381 1 0.7541 0.0706 
9131.500 0.2315 0 0 6286.07 0.305333 1 0.7582 0.0716 
9132.000 0.2266 0 0 5599.8 0.303824 1 0.7458 0.0758 
9132.500 0.2308 0 0 5123.93 0.302659 1 0.7626 0.0791 
9133.000 0.2305 0 0 4897.95 0.298266 1 0.7728 0.0773 
9133.500 0.2347 0 0 4674.72 0.29643 1 0.7917 0.078 
9134.000 0.2389 0 0 3136.98 0.294239 1 0.8119 0.0953 
9134.500 0.2408 0 0 3075.95 0.297789 1 0.8086 0.0994 
9135.000 0.2497 0 0 2108.47 0.304969 1 0.8187 0.124 
9135.500 0.2462 0 0 1803.46 0.305461 1 0.806 0.132 
9136.000 0.2465 0 0 1939.13 0.30256 1 0.8148 0.1259 
9136.500 0.2465 0 0 2523.09 0.297899 1 0.8276 0.109 
9137.000 0.2415 0 0 2234.6 0.30076 1 0.8031 0.1174 
9137.500 0.2427 0 0 1901.41 0.304775 1 0.7963 0.1288 
9138.000 0.243 0 0 1403.04 0.303512 1 0.8007 0.1423 
9138.500 0.2461 0 0 2371.27 0.309918 1 0.794 0.1227 
9139.000 0.2446 0 0 2070.2 0.311427 1 0.7853 0.1306 
9139.500 0.2466 0 0 1634.3 0.310562 1 0.7941 0.1412 
9140.000 0.2429 0 0 1287.54 0.303397 1 0.8007 0.1464 
9140.500 0.2379 0 0 1350.04 0.29907 1 0.7956 0.1402 
9141.000 0.2333 0 0 2279.95 0.300715 1 0.7759 0.1164 
9141.500 0.2398 0 0 2351.76 0.297705 1 0.8056 0.1122 
9142.000 0.2306 0 0 2367.26 0.294486 1 0.7829 0.1091 
9142.500 0.2333 0 0 2146.91 0.292126 1 0.7985 0.1117 
9143.000 0.2355 0 0 2996.35 0.292734 1 0.8043 0.0961 
9143.500 0.2304 0 0 3028 0.294825 1 0.7815 0.0975 
9144.000 0.2331 0 0 2365.68 0.297873 1 0.7824 0.1121 
9144.500 0.2302 0 0 2014.76 0.301591 1 0.7632 0.1232 
9145.000 0.235 0 0 1456.24 0.304637 1 0.7713 0.1415 
9145.500 0.2352 0 0 1506.79 0.303246 1 0.7757 0.1387 
9146.000 0.233 0 0 1056 0.299897 1 0.7769 0.1528 
9146.500 0.2357 0 0 1854.28 0.295125 1 0.7988 0.1214 
9147.000 0.2373 0 0 1857.97 0.292178 1 0.8123 0.1187 
9147.500 0.2363 0 0 2742.44 0.286239 1 0.8255 0.0946 
9148.000 0.2353 0 0 3066.08 0.288174 1 0.8165 0.091 
9148.500 0.2348 0 0 3623.09 0.298151 1 0.7877 0.0918 
9149.000 0.239 0 0 3490.05 0.303753 1 0.7868 0.0986 
9149.500 0.2396 0 0 3144.84 0.301147 1 0.7955 0.1013 
9150.000 0.2423 0 0 2222.38 0.295846 1 0.8189 0.1133 
9150.500 0.2365 0 0 2324.72 0.292743 1 0.8079 0.1084 
9151.000 0.2334 0 0 2186.09 0.293437 1 0.7953 0.112 
9151.500 0.2312 0 0 3078 0.288844 1 0.8004 0.0914 
9152.000 0.2266 0 0 2713.12 0.289343 1 0.7833 0.0979 
9152.500 0.2309 0 0 2536.59 0.287627 1 0.8026 0.0996 
9153.000 0.2376 0 0 3312.76 0.291561 1 0.8151 0.0903 
9153.500 0.229 0 0 3344.17 0.293214 1 0.7809 0.0913 
9154.000 0.232 0 0 2512.79 0.292287 1 0.7936 0.1042 
9154.500 0.2311 0 0 2173.25 0.291923 1 0.7918 0.1109 
9155.000 0.2227 0 0 2000.3 0.291832 1 0.7632 0.1148 
9155.500 0.2221 0 0 2623.31 0.294586 1 0.754 0.1042 
9156.000 0.2243 0 0 2530.08 0.293495 1 0.7644 0.105 
9156.500 0.221 0 0 2528.85 0.292066 1 0.7567 0.1037 
9157.000 0.2242 0 0 1987.77 0.283865 1 0.7899 0.1081 
9157.500 0.2248 0 0 1913.1 0.279226 1 0.8051 0.1058 
9158.000 0.2255 0 0 1729.32 0.27896 1 0.8084 0.1104 
9158.500 0.2256 0 0 1835.32 0.280715 1 0.8036 0.1091 
9159.000 0.2259 0 0 1970.78 0.27969 1 0.8078 0.1048 
9159.500 0.2321 0 0 2564.51 0.277504 1 0.8363 0.0901 
9160.000 0.229 0 0 3028.81 0.276464 1 0.8283 0.0812 
9160.500 0.2252 0 0 2687.37 0.279743 1 0.8049 0.0898 
9161.000 0.2239 0 0 1739.11 0.281442 1 0.7956 0.1124 
9161.500 0.2207 0 0 977.974 0.281492 1 0.7842 0.1402 
9162.000 0.2232 0 0 673.393 0.27985 1 0.7977 0.1567 
9162.500 0.222 0 0 774.381 0.276754 1 0.8022 0.1472 
9163.000 0.2237 0 0 1066.45 0.275699 1 0.8115 0.1309 
9163.500 0.2214 0 0 1798.94 0.272876 1 0.8112 0.1031 
9164.000 0.2131 0 0 2012.61 0.270065 1 0.7891 0.0952 
9164.500 0.1982 0 0 2371.51 0.269755 1 0.7347 0.087 
9165.000 0.1888 0 0 1965.9 0.268771 1 0.7024 0.0952 
9165.500 0.1837 0 0 2382.35 0.263983 1 0.6958 0.0817 
9166.000 0.1735 0 0 2358.99 0.255424 1 0.6792 0.0745 
9166.500 0.1713 0 0 1974.17 0.250643 1 0.6833 0.0789 
9167.000 0.1669 0 0 1627.24 0.255158 1 0.654 0.0922 
9167.500 0.1679 0 0 1018.64 0.259514 1 0.6471 0.1187 
9168.000 0.1711 0 0 1538.32 0.263425 1 0.6496 0.1023 
9168.500 0.1704 0 0 1915.37 0.262104 1 0.65 0.0905 
9169.000 0.1696 0 0 3646.19 0.262431 1 0.6462 0.0597 
9169.500 0.1702 0 0 3648.5 0.263903 1 0.6449 0.061 
9170.000 0.1719 0 0 3384.09 0.264323 1 0.6505 0.065 
9170.500 0.1729 0 0 2475.3 0.263259 1 0.6567 0.0792 
