~Version Information
VERS.                2.00 :CWLS Log ASCII Standard
WRAP.                 YES :Multiple lines per depth step
#
~Well Information
#MNEM.UNIT               DATA                    DESCRIPTION OF MNEMONIC
#--- ---- ----------------------------------- -------------------------------
STRT.F                                  0.000 :START Depth
STOP.F                              13418.500 :STOP Depth
STEP.F                                  0.500 :STEP Length
NULL.                                -999.250 :NULL Value
DATE.                              2009-09-07 :LOG DATE
#
~Curve Information
#--- ---- ----------------------------------- -------------------------------
DEPTH.F                                        :
CALI.IN                                       :Ultrasonic Caliper Average Diameter
DRHB.G/CC                                     :Bulk Density Correction  Bottom
DRHO.G/CC                                     :Bulk Density Correction
DRHU.G/CC                                     :Bulk Density Correction  Up
DT  .US/F                                     :Delta-T Compressional
GR  .GAPI                                     :Gamma Ray
NPHI.V/V                                      :Neutron Porosity
PEF .B/E                                      :Photoelectric Factor Bottom
RD  .OHMM                                     :Deep Resistivity
RHOB.G/CC                                     :Bulk Density
ROBB.G/CC                                     :Bulk Density  Bottom
ROBU.G/CC                                     :Bulk Density  Up
RS  .OHMM                                     :Shallow Resistivity
RT  .OHMM                                     :True Resistivity
#
~ASCII data
# ...
12754.501 
  -999.25 0.0187 0.0187 0.2087 90.0782 136.201 0.30478 -999.25 2.145 2.5192 
  2.5192 2.5163 2.1084 2.4151 
12755.001 
  -999.25 0.0206 0.0206 0.2083 92.2085 134.006 0.302149 -999.25 2.184 2.5186 
  2.5186 2.5219 2.1211 2.3699 
12755.501 
  -999.25 0.0251 0.0251 0.2065 92.7116 131.847 0.307331 -999.25 2.184 2.5168 
  2.5168 2.5216 2.0363 2.1491 
12756.001 
  -999.25 0.0237 0.0237 0.21 93.2262 131.519 0.303381 -999.25 2.069 2.5079 
  2.5079 2.5191 2.0051 2.0933 
12756.501 
  -999.25 0.0215 0.0215 0.2057 93.9236 133.046 0.318525 -999.25 2.069 2.5055 
  2.5055 2.5084 2.0434 2.1577 
12757.001 
  -999.25 0.0242 0.0242 0.1985 93.9165 133.083 0.316815 -999.25 2.107 2.5089 
  2.5089 2.5035 1.9173 2.007 
12757.501 
  -999.25 0.0273 0.0273 0.1954 94.1189 132.392 0.305085 -999.25 2.145 2.5093 
  2.5093 2.5033 1.7754 1.9063 
12758.001 
  -999.25 0.0265 0.0265 0.193 94.1166 131.073 0.30437 -999.25 2.145 2.5066 
  2.5066 2.5463 1.6778 1.8327 
12758.501 
  -999.25 0.0211 0.0211 0.1259 94.4471 130.605 0.298623 -999.25 2.145 2.5076 
  2.5076 2.5123 1.6228 1.7819 
12759.001 
  -999.25 0.0206 0.0206 0.1473 94.8968 128.893 0.309873 -999.25 2.069 2.5136 
  2.5136 2.5835 1.5823 1.721 
12759.501 
  -999.25 0.0223 0.0223 0.1448 96.5255 128.725 0.301249 -999.25 2.069 2.5102 
  2.5102 2.5207 1.6904 1.7952 
12760.001 
  -999.25 0.0217 0.0217 0.2137 95.9695 129.554 0.316631 -999.25 2.069 2.5005 
  2.5005 2.5639 1.6821 1.6933 
12760.501 
  -999.25 0.0155 0.0155 0.2116 94.3181 131.305 0.304038 -999.25 2.069 2.49 
  2.49 2.5157 1.7189 1.7191 
12761.001 
  -999.25 0.0175 0.0175 0.2134 93.4303 132.954 0.304451 -999.25 1.995 2.4952 
  2.4952 2.5122 1.7978 1.9177 
12761.501 
  -999.25 0.0197 0.0197 0.2072 93.9808 132.385 0.306414 -999.25 2.032 2.4975 
  2.4975 2.506 1.86 2.0262 
12762.001 
  -999.25 0.0339 0.0339 0.1998 94.6605 132.34 0.311093 -999.25 2.145 2.5306 
  2.5306 2.5086 1.8107 2.0565 
12762.501 
  -999.25 0.0219 0.0219 0.2096 94.7258 127.933 0.310611 -999.25 2.069 2.5395 
  2.5395 2.5253 1.7019 1.9067 
12763.001 
  -999.25 0.0221 0.0221 0.2019 95.0913 126.087 0.31107 -999.25 2.265 2.5599 
  2.5599 2.5196 1.5681 1.6683 
12763.501 
  -999.25 0.0116 0.0116 0.2092 95.6762 123.742 0.313925 -999.25 1.96 2.5364 
  2.5364 2.5313 1.6559 1.7578 
12764.001 
  -999.25 0.0255 0.0255 0.2144 94.1585 125.25 0.302391 -999.25 2.032 2.5288 
  2.5288 2.5286 1.7777 1.8527 
12764.501 
  -999.25 0.0248 0.0248 0.2174 92.8916 126.62 0.317264 -999.25 1.89 2.5112 
  2.5112 2.5313 1.7765 1.8892 
12765.001 
  -999.25 0.0268 0.0268 0.2062 92.5997 128.94 0.302243 -999.25 1.915 2.5098 
  2.5098 2.5194 1.8322 1.9542 
12765.501 
  -999.25 0.0231 0.0231 0.2069 92.478 129.436 0.295541 -999.25 1.924 2.5184 
  2.5184 2.5222 1.8425 1.8629 
12766.001 
  -999.25 0.0214 0.0214 0.2111 93.5473 128.393 0.295661 -999.25 1.856 2.525 
  2.525 2.5301 1.9086 1.959 
12766.501 
  -999.25 0.021 0.021 0.2135 95.5048 127.501 0.310881 -999.25 1.89 2.5279 
  2.5279 2.5368 1.9463 1.9924 
12767.001 
  -999.25 0.0227 0.0227 0.2116 94.7205 127.228 0.275752 -999.25 1.856 2.5226 
  2.5226 2.5317 1.7772 1.9783 
12767.501 
  -999.25 0.0288 0.0288 0.2119 93.4135 128.738 0.301351 -999.25 1.727 2.5271 
  2.5271 2.5311 1.7866 1.9186 
12768.001 
  -999.25 0.0351 0.0351 0.2062 95.5042 128.501 0.304364 -999.25 1.79 2.5336 
  2.5336 2.5217 1.9001 1.6703 
12768.501 
  -999.25 0.04 0.04 0.1997 98.4024 127.572 0.312957 -999.25 1.79 2.5236 
  2.5236 2.5173 1.7078 1.4779 
12769.001 
  -999.25 0.0397 0.0397 0.198 98.3102 129.028 0.304897 -999.25 1.79 2.509 
  2.509 2.5129 1.7496 1.8059 
12769.501 
  -999.25 0.0328 0.0328 0.1904 99.0244 128.15 0.328083 -999.25 1.696 2.5136 
  2.5136 2.5033 1.8535 2.0873 
12770.001 
  -999.25 0.016 0.016 0.1954 100.627 127.374 0.319443 -999.25 1.809 2.5191 
  2.5191 2.5208 2.5481 3.2305 
12770.501 
  -999.25 0.0223 0.0223 0.18 99.3055 124.25 0.319762 -999.25 2.437 2.5509 
  2.5509 2.5075 1.3862 1.3555 
12771.001 
  -999.25 0.0229 0.0229 0.1895 97.6398 125.797 0.323819 -999.25 2.074 2.5172 
  2.5172 2.5172 1.1233 0.9928 
12771.501 
  -999.25 0.0361 0.0361 0.1787 98.7562 128.872 0.349932 -999.25 1.856 2.5069 
  2.5069 2.4894 1.5305 1.4166 
12772.001 
  -999.25 0.0297 0.0297 0.198 99.6811 130.676 0.359865 -999.25 1.997 2.472 
  2.472 2.4944 1.809 1.7721 
12772.501 
  -999.25 0.0272 0.0272 0.1931 100.041 129.392 0.342635 -999.25 2.07 2.4693 
  2.4693 2.4829 1.3643 1.3917 
12773.001 
  -999.25 0.0261 0.0261 0.1869 99.7445 130.301 0.345409 -999.25 2.146 2.4599 
  2.4599 2.477 1.4759 1.5182 
12773.501 
  -999.25 0.028 0.028 0.1871 99.9194 131.671 0.343685 -999.25 1.823 2.4579 
  2.4579 2.475 1.5617 1.6062 
12774.001 
  -999.25 0.0251 0.0251 0.1914 98.533 136.637 0.336597 -999.25 1.924 2.4546 
  2.4546 2.4714 1.8985 2.026 
12774.501 
  -999.25 0.0243 0.0243 0.1876 98.7098 138.295 0.346025 -999.25 1.995 2.459 
  2.459 2.4624 1.7716 1.8212 
12775.001 
  -999.25 0.0219 0.0219 0.1863 97.7396 141.012 0.344563 -999.25 1.924 2.4571 
  2.4571 2.4635 1.7063 1.6309 
12775.501 
  -999.25 0.0261 0.0261 0.1973 97.4077 138.99 0.379332 -999.25 1.89 2.4591 
  2.4591 2.472 1.8983 1.9893 
12776.001 
  -999.25 0.0273 0.0273 0.1945 97.3497 139.873 0.365588 -999.25 2.069 2.4548 
  2.4548 2.4685 1.7938 1.8819 
12776.501 
  -999.25 0.0252 0.0252 0.1856 98.2105 139.981 0.348469 -999.25 2.069 2.4537 
  2.4537 2.4629 1.7073 1.7167 
12777.001 
  -999.25 0.0248 0.0248 0.1826 98.6537 143.878 0.353448 -999.25 2.184 2.4583 
  2.4583 2.4571 1.8933 2.0221 
12777.501 
  -999.25 0.0203 0.0203 0.184 97.9582 144.391 0.349042 -999.25 2.145 2.4547 
  2.4547 2.4571 1.7348 1.8454 
12778.001 
  -999.25 0.019 0.019 0.184 98.4444 143.577 0.346737 -999.25 2.145 2.4557 
  2.4557 2.4558 1.8129 1.8406 
12778.501 
  -999.25 0.0201 0.0201 0.1851 98.5831 139.206 0.37056 -999.25 2.145 2.4572 
  2.4572 2.456 1.8851 1.8998 
12779.001 
  -999.25 0.0183 0.0183 0.1881 99.1536 135.899 0.346395 -999.25 2.184 2.4716 
  2.4716 2.4639 1.8733 1.8586 
12779.501 
  -999.25 0.0214 0.0214 0.1887 99.4784 133.683 0.347261 -999.25 2.224 2.4839 
  2.4839 2.4657 1.7543 1.805 
12780.001 
  -999.25 0.0165 0.0165 0.1873 98.7208 133.754 0.346034 -999.25 2.145 2.4869 
  2.4869 2.468 1.8484 1.9595 
12780.501 
  -999.25 0.0215 0.0215 0.2005 99.3562 133.652 0.334246 -999.25 2.184 2.4895 
  2.4895 2.4816 2.0407 2.2757 
12781.001 
  -999.25 0.0202 0.0202 0.197 99.6951 133.477 0.313976 -999.25 2.305 2.484 
  2.484 2.4854 1.9473 2.1445 
12781.501 
  -999.25 0.0203 0.0203 0.1962 101.685 134.818 0.352467 -999.25 2.305 2.4745 
  2.4745 2.4902 1.9249 1.9491 
12782.001 
  -999.25 0.0219 0.0219 0.1927 101.172 136.414 0.344495 -999.25 2.265 2.4619 
  2.4619 2.4869 2.0898 2.1226 
12782.501 
  -999.25 0.0238 0.0238 0.1859 97.9221 135.073 0.346184 -999.25 2.265 2.4629 
  2.4629 2.4704 2.2671 2.3778 
12783.001 
  -999.25 0.0238 0.0238 0.1776 97.5899 131.837 0.334438 -999.25 2.224 2.4713 
  2.4713 2.4579 2.2762 2.3619 
12783.501 
  -999.25 0.0234 0.0234 0.1753 96.7186 126.449 0.354092 -999.25 2.305 2.4916 
  2.4916 2.4559 2.1184 2.2447 
12784.001 
  -999.25 0.0199 0.0199 0.1852 98.118 122.248 0.347852 -999.25 2.48 2.4917 
  2.4917 2.4784 2.0556 2.3348 
12784.501 
  -999.25 0.0229 0.0229 0.1876 100.24 121.053 0.332567 -999.25 2.437 2.4814 
  2.4814 2.4862 1.6687 1.759 
12785.001 
  -999.25 0.0231 0.0231 0.1955 99.0938 122.765 0.357506 -999.25 2.437 2.4579 
  2.4579 2.4805 2.0333 2.247 
12785.501 
  -999.25 0.0265 0.0265 0.1958 100.231 127.67 0.376339 -999.25 2.48 2.4473 
  2.4473 2.4643 1.8111 1.939 
12786.001 
  -999.25 0.0286 0.0286 0.1912 100.947 130.029 0.364998 -999.25 2.224 2.4504 
  2.4504 2.454 1.6575 1.6203 
12786.501 
  -999.25 0.025 0.025 0.182 100.872 132.2 0.368446 -999.25 2.184 2.4526 
  2.4526 2.4497 1.901 1.9775 
12787.001 
  -999.25 0.0236 0.0236 0.1867 100.654 132.492 0.345801 -999.25 2.305 2.4529 
  2.4529 2.4588 1.7788 1.8409 
12787.501 
  -999.25 0.0254 0.0254 0.1916 99.3994 132.542 0.350139 -999.25 2.305 2.4541 
  2.4541 2.4702 1.698 1.717 
12788.001 
  -999.25 0.0288 0.0288 0.1971 98.736 132.892 0.362782 -999.25 2.225 2.4526 
  2.4526 2.4751 1.739 1.8072 
