~Version Information
VERS.                2.00 :CWLS Log ASCII Standard
WRAP.                  NO :One line per depth step
#
~Well Information
#MNEM.UNIT               DATA                    DESCRIPTION OF MNEMONIC
#--- ---- ----------------------------------- -------------------------------
STRT.F                               8494.000 :START Depth
STOP.F                              13418.500 :STOP Depth
STEP.F                                  0.500 :STEP Length
NULL.                                -999.250 :NULL Value
DATE.                              2009-09-07 :LOG DATE
#
~Curve Information
#--- ---- ----------------------------------- -------------------------------
DEPTH.F                                        :
BVW .V/V                                      :Bound Volume Water
CARB_FLAG.UNITLESS                                     :Carbonate flag
COAL_FLAG.UNITLESS                                     :Coal flag
KLOGH.MD                                       :Calculated Horizontal Permeability From Logs
PHIF.V/V                                      :Final Porosity
SAND_FLAG.UNITLESS                                     :Sand Flag
SW  .V/V                                      :Water Saturation
VSH .V/V                                      :Volume of Shale
#
~ASCII data
8494.000 0.1902 0 -999.25 0.001 0.190204 0 1 0.9136 
8494.500 0.1955 0 -999.25 0.001 0.195471 0 1 0.9048 
8495.000 0.1997 0 -999.25 0.001 0.199674 0 1 0.9117 
8495.500 0.2021 0 -999.25 0.001 0.202071 0 1 0.8773 
8496.000 0.1984 0 -999.25 0.001 0.198369 0 1 0.8431 
8496.500 0.2014 0 -999.25 0.001 0.201353 0 1 0.7951 
8497.000 0.2031 0 -999.25 0.001 0.203065 0 1 0.75 
8497.500 0.2087 0 -999.25 0.001 0.20874 0 1 0.6886 
8498.000 0.2013 0 -999.25 0.001 0.201323 0 1 0.6253 
8498.500 0.2001 0 -999.25 0.001 0.200096 0 1 0.5963 
8499.000 0.2005 0 -999.25 0.001 0.200522 0 1 0.593 
8499.500 0.2081 0 -999.25 0.001 0.208086 0 1 0.5975 
8500.000 0.2099 0 -999.25 0.001 0.209941 0 1 0.5914 
8500.500 0.2107 0 -999.25 0.001 0.210657 0 1 0.5755 
8501.000 0.2082 0 -999.25 0.001 0.208229 0 1 0.5495 
8501.500 0.2132 0 -999.25 0.001 0.213153 0 1 0.5121 
8502.000 0.2119 0 -999.25 0.001 0.211856 0 1 0.5034 
8502.500 0.2187 0 -999.25 0.001 0.218732 0 1 0.524 
8503.000 0.2121 0 -999.25 0.001 0.212061 0 1 0.5652 
8503.500 0.2079 0 -999.25 0.001 0.207906 0 1 0.5739 
8504.000 0.2055 0 -999.25 0.001 0.205454 0 1 0.6081 
8504.500 0.2005 0 -999.25 0.001 0.200467 0 1 0.6312 
8505.000 0.1986 0 -999.25 0.001 0.198644 0 1 0.6361 
8505.500 0.1819 0 -999.25 0.001 0.181871 0 1 0.6389 
8506.000 0.1714 0 -999.25 0.001 0.171431 0 1 0.6233 
8506.500 0.1573 0 -999.25 0.001 0.157273 0 1 0.613 
8507.000 0.1243 0 -999.25 0.001 0.124332 0 1 0.5775 
8507.500 0.1097 0 -999.25 0.001 0.10969 0 1 0.5494 
8508.000 0.0989 0 -999.25 0.001 0.098859 0 1 0.5289 
8508.500 0.1523 0 -999.25 0.001 0.152322 0 1 0.5468 
8509.000 0.1255 0 -999.25 0.001 0.125518 0 1 0.5507 
8509.500 0.1181 0 -999.25 0.001 0.118128 0 1 0.5454 
8510.000 0.1152 0 -999.25 0.001 0.115197 1 1 0.4958 
8510.500 0.1636 0 -999.25 0.001 0.163601 0 1 0.5059 
8511.000 0.1881 0 -999.25 0.001 0.188141 0 1 0.5455 
8511.500 0.1945 0 -999.25 0.001 0.194496 0 1 0.6071 
8512.000 0.1969 0 -999.25 0.001 0.196933 0 1 0.612 
8512.500 0.1957 0 -999.25 0.001 0.195746 0 1 0.5911 
8513.000 0.1946 0 -999.25 0.001 0.19455 0 1 0.5544 
8513.500 0.1611 0 -999.25 0.001 0.161092 0 1 0.5242 
8514.000 0.1353 0 -999.25 0.001 0.135299 0 1 0.5046 
8514.500 0.126 0 -999.25 0.001 0.125979 1 1 0.4988 
8515.000 0.1671 0 -999.25 0.001 0.167081 0 1 0.5085 
8515.500 0.1904 0 -999.25 0.001 0.190436 1 1 0.4977 
8516.000 0.2007 0 -999.25 0.001 0.200748 1 1 0.4855 
8516.500 0.2004 0 -999.25 0.001 0.200406 1 1 0.483 
8517.000 0.1989 0 -999.25 0.001 0.198941 0 1 0.501 
8517.500 0.1944 0 -999.25 0.001 0.194449 0 1 0.526 
8518.000 0.1971 0 -999.25 0.001 0.197085 0 1 0.5149 
8518.500 0.1948 0 -999.25 0.001 0.194793 1 1 0.4855 
8519.000 0.1981 0 -999.25 0.001 0.198128 1 1 0.4264 
8519.500 0.1868 0 -999.25 0.001 0.18684 1 1 0.4261 
8520.000 0.1904 0 -999.25 0.001 0.190401 1 1 0.4494 
8520.500 0.1901 0 -999.25 0.001 0.190144 1 1 0.483 
8521.000 0.1942 0 -999.25 0.001 0.194194 1 1 0.459 
8521.500 0.1941 0 -999.25 0.001 0.194129 1 1 0.4532 
8522.000 0.1939 0 -999.25 0.001 0.193856 1 1 0.4411 
8522.500 0.1982 0 -999.25 0.001 0.198161 1 1 0.4655 
8523.000 0.1982 0 -999.25 0.001 0.198171 1 1 0.4631 
8523.500 0.1974 0 -999.25 0.001 0.197383 1 1 0.4805 
8524.000 0.1948 0 -999.25 0.001 0.194809 1 1 0.476 
8524.500 0.1953 0 -999.25 0.001 0.19527 1 1 0.4783 
8525.000 0.1931 0 -999.25 0.001 0.19311 1 1 0.4588 
8525.500 0.186 0 -999.25 0.001 0.185984 1 1 0.4581 
8526.000 0.1838 0 -999.25 0.001 0.18381 1 1 0.4449 
8526.500 0.1864 0 -999.25 0.001 0.186403 1 1 0.4458 
8527.000 0.1927 0 -999.25 0.001 0.192672 1 1 0.4403 
8527.500 0.1937 0 -999.25 0.001 0.193679 1 1 0.4442 
8528.000 0.1715 0 -999.25 0.001 0.171461 1 1 0.4579 
8528.500 0.1411 0 -999.25 0.001 0.141084 1 1 0.4668 
8529.000 0.1363 0 -999.25 0.001 0.136347 1 1 0.4656 
8529.500 0.1601 0 -999.25 0.001 0.160069 1 1 0.4688 
8530.000 0.1909 0 -999.25 0.001 0.190929 1 1 0.4414 
8530.500 0.1948 0 -999.25 0.001 0.194798 1 1 0.4543 
8531.000 0.1989 0 -999.25 0.001 0.198931 1 1 0.4529 
8531.500 0.194 0 -999.25 0.001 0.193979 1 1 0.4588 
8532.000 0.1912 0 -999.25 0.001 0.191153 1 1 0.4335 
8532.500 0.19 0 -999.25 0.001 0.190012 1 1 0.4085 
8533.000 0.1848 0 -999.25 0.001 0.184803 1 1 0.4044 
8533.500 0.1883 0 -999.25 0.001 0.188269 1 1 0.4219 
8534.000 0.1877 0 -999.25 0.001 0.187703 1 1 0.4277 
8534.500 0.1953 0 -999.25 0.001 0.195279 1 1 0.4478 
8535.000 0.1936 0 -999.25 0.001 0.193629 1 1 0.4572 
8535.500 0.1886 0 -999.25 0.001 0.1886 1 1 0.4553 
8536.000 0.1841 0 -999.25 0.001 0.184139 1 1 0.4196 
8536.500 0.1776 0 -999.25 0.001 0.177623 1 1 0.3745 
8537.000 0.1435 0 -999.25 0.001 0.143491 1 1 0.3565 
8537.500 0.0924 1 -999.25 0.001 0.092375 0 1 0.3662 
8538.000 0.0402 1 -999.25 0.001 0.040229 0 1 0.3841 
8538.500 0.0123 1 -999.25 0.001 0.012278 0 1 0.3845 
8539.000 0.0287 1 -999.25 0.001 0.028654 0 1 0.3863 
8539.500 0.0889 1 -999.25 0.001 0.088925 0 1 0.3816 
8540.000 0.144 0 -999.25 0.001 0.143977 1 1 0.4068 
8540.500 0.1764 0 -999.25 0.001 0.176365 1 1 0.4227 
8541.000 0.1678 0 -999.25 0.001 0.167826 1 1 0.4327 
8541.500 0.1451 0 -999.25 0.001 0.145092 1 1 0.4305 
8542.000 0.1151 0 -999.25 0.001 0.11509 1 1 0.408 
8542.500 0.0997 0 -999.25 0.001 0.099721 0 1 0.3918 
8543.000 0.0965 0 -999.25 0.001 0.096489 0 1 0.3643 
8543.500 0.1426 0 -999.25 0.001 0.142596 1 1 0.361 
8544.000 0.1491 0 -999.25 0.001 0.149056 1 1 0.3561 
8544.500 0.1692 0 -999.25 0.001 0.169156 1 1 0.3482 
8545.000 0.1644 0 -999.25 0.001 0.164449 1 1 0.3308 
8545.500 0.1618 0 -999.25 0.001 0.161827 1 1 0.3183 
8546.000 0.162 0 -999.25 0.001 0.16202 1 1 0.31 
8546.500 0.1727 0 -999.25 0.001 0.172727 1 1 0.3247 
8547.000 0.184 0 -999.25 0.001 0.18403 1 1 0.3538 
8547.500 0.199 0 -999.25 0.001 0.199037 1 1 0.3897 
8548.000 0.2087 0 -999.25 0.001 0.208677 1 1 0.4189 
8548.500 0.2145 0 -999.25 0.001 0.214517 1 1 0.4335 
8549.000 0.2152 0 -999.25 0.001 0.21515 1 1 0.4591 
8549.500 0.2092 0 -999.25 0.001 0.209191 1 1 0.4719 
8550.000 0.2122 0 -999.25 0.001 0.212244 1 1 0.4634 
8550.500 0.2076 0 -999.25 0.001 0.207617 1 1 0.4263 
8551.000 0.2055 0 -999.25 0.001 0.205484 1 1 0.4182 
8551.500 0.2017 0 -999.25 0.001 0.201663 1 1 0.4151 
8552.000 0.2005 0 -999.25 0.001 0.200482 1 1 0.4255 
8552.500 0.2028 0 -999.25 0.001 0.202819 1 1 0.4011 
8553.000 0.2043 0 -999.25 0.001 0.204295 1 1 0.3865 
8553.500 0.1996 0 -999.25 0.001 0.199637 1 1 0.3698 
8554.000 0.2013 0 -999.25 0.001 0.202021 1 0.9962 0.3706 
8554.500 0.1926 0 -999.25 0.001 0.192556 1 1 0.3948 
8555.000 0.1962 0 -999.25 0.001 0.196151 1 1 0.4421 
8555.500 0.1878 0 -999.25 0.001 0.187839 1 1 0.4737 
8556.000 0.1895 0 -999.25 0.001 0.189469 1 1 0.4755 
8556.500 0.1813 0 -999.25 0.001 0.181278 1 1 0.4665 
8557.000 0.18 0 -999.25 0.001 0.180021 1 1 0.4487 
8557.500 0.1834 0 -999.25 0.001 0.183405 1 1 0.4306 
8558.000 0.188 0 -999.25 0.001 0.188024 1 1 0.3941 
8558.500 0.1915 0 -999.25 0.001 0.191503 1 1 0.3855 
8559.000 0.1901 0 -999.25 0.001 0.190055 1 1 0.3973 
8559.500 0.1889 0 -999.25 0.001 0.188869 1 1 0.4148 
8560.000 0.1913 0 -999.25 0.001 0.191332 1 1 0.4188 
8560.500 0.1941 0 -999.25 0.001 0.194121 1 1 0.4138 
8561.000 0.1924 0 -999.25 0.001 0.192355 1 1 0.4061 
8561.500 0.1912 0 -999.25 0.001 0.19124 1 1 0.4022 
8562.000 0.1836 0 -999.25 0.001 0.183591 1 1 0.3878 
8562.500 0.1869 0 -999.25 0.001 0.186869 1 1 0.361 
8563.000 0.1877 0 -999.25 0.001 0.187661 1 1 0.3312 
8563.500 0.1834 0 -999.25 0.001 0.183427 1 1 0.3001 
8564.000 0.1876 0 -999.25 0.001 0.187648 1 1 0.3076 
8564.500 0.1841 0 -999.25 0.001 0.184087 1 0.9999 0.321 
8565.000 0.1883 0 -999.25 0.001 0.188289 1 1 0.3782 
8565.500 0.1893 0 -999.25 0.001 0.189282 1 1 0.4097 
8566.000 0.1843 0 -999.25 0.001 0.184268 1 1 0.438 
8566.500 0.1728 0 -999.25 0.001 0.172811 1 1 0.4266 
8567.000 0.1598 0 -999.25 0.001 0.159751 1 1 0.4315 
8567.500 0.1664 0 -999.25 0.001 0.16643 1 1 0.4397 
8568.000 0.1853 0 -999.25 0.001 0.185319 1 1 0.4637 
8568.500 0.1918 0 -999.25 0.001 0.19178 1 1 0.446 
8569.000 0.1911 0 -999.25 0.001 0.191127 1 1 0.4341 
8569.500 0.1875 0 -999.25 0.001 0.18747 1 1 0.3981 
